[
	{
		"market_name": "강릉동부시장",
		"address_j": "강원도 강릉시 옥천동 48",
		"address_r": "강원도 강릉시 수문길19번옆길 12-1",
		"street_score": "5",
		"main_product": "건어물",
		"position": {
			"latitude": "37.7558276",
			"longitude": "128.9020256"
		}
	},
	{
		"market_name": "강릉서부시장",
		"address_j": "강원도 강릉시 용강동 29",
		"address_r": "강원도 강릉시 임영로 155번길 6",
		"street_score": "9",
		"main_product": "컴퓨터기기 감자전 추어탕",
		"position": {
			"latitude": "37.7550814",
			"longitude": "128.8908039"
		}
	},
	{
		"market_name": "강릉성남시장",
		"address_j": "강원도 강릉시 성남동 53-8",
		"address_r": "강원도 강릉시 중앙시장길 24-2",
		"street_score": "47",
		"main_product": "닭강정 국수 호떡 어묵고로케",
		"position": {
			"latitude": "37.7537099",
			"longitude": "128.8990558"
		}
	},
	{
		"market_name": "주문진건어물시장",
		"address_j": "강원도 강릉시 주문리 312-708",
		"address_r": "강원도 강릉시 주문진읍 해안로1748",
		"street_score": "0",
		"main_product": "건어물 수산물 회 대게",
		"position": {
			"latitude": "37.8911644",
			"longitude": "128.8287656"
		}
	},
	{
		"market_name": "주문진수산시장",
		"address_j": "강원도 강릉시 주문리 312-91",
		"address_r": "강원도 강릉시주문진읍 시장1길 4 - 1",
		"street_score": "0",
		"main_product": "문어 복어 홍개 대게 등",
		"position": {
			"latitude": "37.8907918",
			"longitude": "128.8279917"
		}
	},
	{
		"market_name": "주문진종합시장",
		"address_j": "강원도 강릉시 주문리 321-52",
		"address_r": "강원도 강릉시 주문진읍 구시장길 8 - 1",
		"street_score": "2",
		"main_product": "감자옹심이 감자전 메밀전 떡만두국 생선구이",
		"position": {
			"latitude": "37.8912470",
			"longitude": "128.8268717"
		}
	},
	{
		"market_name": "중앙시장",
		"address_j": "강원도 강릉시 성남동 50",
		"address_r": "강원도 강릉시 금성로21",
		"street_score": "80",
		"position": {
			"latitude": "37.7539977",
			"longitude": "128.8986328"
		}
	},
	{
		"market_name": "간성시장",
		"address_j": "강원도 고성군 간성읍 신안리 311-10",
		"address_r": "강원도 고성군 간성시장3길 7-2",
		"street_score": "49",
		"main_product": "농산물 청과물",
		"position": {
			"latitude": "38.3799006",
			"longitude": "128.4694409"
		}
	},
	{
		"market_name": "거진시장",
		"address_j": "강원도 고성군 거진리 272",
		"address_r": "강원도 고성군 거진시장길 15",
		"street_score": "30",
		"position": {
			"latitude": "38.4478470",
			"longitude": "128.4539864"
		}
	},
	{
		"market_name": "동쪽바다중앙시장",
		"address_j": "강원도 동해시 발한동 7-1",
		"address_r": "강원도 동해시 중앙시장길 12",
		"street_score": "28",
		"main_product": "꽃발문어 먹태 홍합장칼국수 거동탕수육",
		"position": {
			"latitude": "37.5510641",
			"longitude": "129.1085456"
		}
	},
	{
		"market_name": "동해남부재래시장",
		"address_j": "강원도 동해시 동회동 442",
		"address_r": "강원도 동해시 청운1길 29",
		"street_score": "0",
		"position": {
			"latitude": "37.4873843",
			"longitude": "129.1059478"
		}
	},
	{
		"market_name": "묵호시장",
		"address_j": "강원도 동해시묵호동 15-61",
		"address_r": "강원도 동해시 일출로 59-1",
		"street_score": "10",
		"position": {
			"latitude": "37.5523060",
			"longitude": "129.1142451"
		}
	},
	{
		"market_name": "북평민속시장",
		"address_j": "강원도 동해시 북평동 15-5",
		"address_r": "강원도 동해시 오일장길 32",
		"street_score": "455",
		"main_product": "국밥 수제품 주막",
		"position": {
			"latitude": "37.4824853",
			"longitude": "129.1260112"
		}
	},
	{
		"market_name": "도계전두시장",
		"address_j": "강원도 삼척시 도계읍 전두리 81-20",
		"address_r": "강원도 삼척시 도계읍 전두시장길 6-1",
		"street_score": "0",
		"position": {
			"latitude": "37.2291342",
			"longitude": "129.0428002"
		}
	},
	{
		"market_name": "도계중앙시장",
		"address_j": "강원도 삼척시 도계읍 도계리 390-1",
		"address_r": "강원도 삼척시 도계읍 도계로4길 20",
		"street_score": "0",
		"position": {
			"latitude": "37.2351280",
			"longitude": "129.0450858"
		}
	},
	{
		"market_name": "삼척번개시장",
		"address_j": "강원도 삼척시 사직동 50-11",
		"address_r": "강원도 삼척시 중앙로 14-27",
		"street_score": "23",
		"main_product": "활어회",
		"position": {
			"latitude": "37.4308943",
			"longitude": "129.1785769"
		}
	},
	{
		"market_name": "삼척중앙시장",
		"address_j": "강원도 삼척시 남양동 55-4",
		"address_r": "강원도 삼척시진주로 12-21",
		"street_score": "79",
		"main_product": "문어숙회 돌각미역",
		"position": {
			"latitude": "37.4421048",
			"longitude": "129.1646023"
		}
	},
	{
		"market_name": "속초종합중앙시장",
		"address_j": "강원도 속초시 중앙동 471-4",
		"address_r": "강원도 속초시 중앙로147번길 16 ",
		"street_score": "56",
		"main_product": "닭강정  튀김  회  건어물",
		"position": {
			"latitude": "38.2045154",
			"longitude": "128.5902363"
		}
	},
	{
		"market_name": "속초중앙전통시장",
		"address_j": "강원도 속초시 중앙동 493-3",
		"address_r": "강원도 속초시  중앙시장로6길 2 외 127필지",
		"street_score": "74",
		"main_product": "수산물 회 건어물등",
		"position": {
			"latitude": "38.2054926",
			"longitude": "128.5893309"
		}
	},
	{
		"market_name": "양구중앙시장",
		"address_j": "강원도 양구군 상리 235",
		"address_r": "강원도 양구군 중앙길 68",
		"street_score": "80",
		"main_product": "곰취 시레기",
		"position": {
			"latitude": "38.1041072",
			"longitude": "127.9893193"
		}
	},
	{
		"market_name": "양양전통시장",
		"address_j": "강원도 양양군 남문리 57",
		"address_r": "강원도 양양군 양양읍 남문5길 9",
		"street_score": "148",
		"position": {
			"latitude": "38.0750161",
			"longitude": "128.6232162"
		}
	},
	{
		"market_name": "서부공설시장",
		"address_j": "강원도 영월군 영월읍 하송리 5-10",
		"address_r": "강원도 영월군 영월읍 서부시장길 8-1",
		"street_score": "7",
		"main_product": "닭강정",
		"position": {
			"latitude": "37.1829249",
			"longitude": "128.4663103"
		}
	},
	{
		"market_name": "영월서부시장",
		"address_j": "강원도 영월군 영월읍 영흥리 947-57",
		"address_r": "강원도 영월군 중앙로 30-1",
		"street_score": "0",
		"main_product": "전병",
		"position": {
			"latitude": "37.1833158",
			"longitude": "128.4667590"
		}
	},
	{
		"market_name": "영월종합상가시장",
		"address_j": "강원도 영월군 영월읍 하송리 11-3",
		"address_r": "강원도 영월군 영월읍 하송안 길",
		"street_score": "7",
		"main_product": "닭발",
		"position": {
			"latitude": null,
			"longitude": null
		}
	},
	{
		"market_name": "영월중앙시장",
		"address_j": "강원도 영월군 영원읍 영흥리 931",
		"address_r": "강원도 영월군 영원읍 제방안길 16-1",
		"street_score": "0",
		"position": {
			"latitude": null,
			"longitude": null
		}
	},
	{
		"market_name": "문막시장",
		"address_j": "강원도 원주시 문막읍 문막리 240-1",
		"address_r": "강원도 원주시  문막읍 문막시장1길 52-10",
		"street_score": "10",
		"position": {
			"latitude": "37.3060190",
			"longitude": "127.8153803"
		}
	},
	{
		"market_name": "미로예술원주중앙시장(원주중앙시장)",
		"address_j": "강원도 원주시 중앙동 60-56",
		"address_r": "강원도 원주시 중앙시장길 6",
		"street_score": "14",
		"main_product": "소고기 숯불구이  올챙이 국수",
		"position": {
			"latitude": "37.3500139",
			"longitude": "127.9491964"
		}
	},
	{
		"market_name": "민속풍물시장",
		"address_j": "강원도 원주시 평원동 134-1",
		"address_r": "강원도 원주시 풍물시장길 30",
		"street_score": "1",
		"position": {
			"latitude": "37.3489870",
			"longitude": "127.9541166"
		}
	},
	{
		"market_name": "북원상가시장",
		"address_j": "강원도 원주시 태장2동 1379-23",
		"address_r": "강원도 원주시 북원상가길 13",
		"street_score": "0",
		"position": {
			"latitude": "37.3843696",
			"longitude": "127.9488402"
		}
	},
	{
		"market_name": "원주남부시장",
		"address_j": "강원도 원주시 명륜동 26",
		"address_r": "강원도 원주시 치악로 1803",
		"street_score": "0",
		"position": {
			"latitude": "37.3430567",
			"longitude": "127.9544991"
		}
	},
	{
		"market_name": "자유시장",
		"address_j": "강원도 원주시 중앙동 57",
		"address_r": "강원도 원주시 중앙시장길 11",
		"street_score": "0",
		"main_product": "돈가스.만두.떡볶이.수입상품",
		"position": {
			"latitude": "37.3508090",
			"longitude": "127.9487726"
		}
	},
	{
		"market_name": "중앙시민전통시장",
		"address_j": "강원도 원주시중앙동 48",
		"address_r": "강원도 원주시 중앙시장길 31-3",
		"street_score": "0",
		"position": {
			"latitude": "37.3512592",
			"longitude": "127.9497377"
		}
	},
	{
		"market_name": "원통시장",
		"address_j": "강원도 인제군 북면 원통리 647-40",
		"address_r": "강원도 인제군 북면 원통로 178번길 7-1",
		"street_score": "30",
		"position": {
			"latitude": "38.1225617",
			"longitude": "128.2046170"
		}
	},
	{
		"market_name": "인제시장",
		"address_j": "강원도 인제군 인제읍 상동리 258-32번지 ",
		"address_r": "강원도 인제군 인제읍 인제로 178번길 14",
		"street_score": "20",
		"position": {
			"latitude": "38.0671104",
			"longitude": "128.1711324"
		}
	},
	{
		"market_name": "고한구공탄시장(고한시장)",
		"address_j": "강원도 정선군 고한읍 고한리 62-14",
		"address_r": "강원도 정선군 고한읍 고한 4길 38-6",
		"street_score": "2",
		"position": {
			"latitude": "37.2013336",
			"longitude": "128.8540569"
		}
	},
	{
		"market_name": "임계사통팔달시장",
		"address_j": "강원도 정선군 송계리 774-5",
		"address_r": "강원도 정선군 송계3길 12",
		"street_score": "82",
		"main_product": "화전민음식",
		"position": {
			"latitude": "37.4951141",
			"longitude": "128.8525744"
		}
	},
	{
		"market_name": "정선사북시장",
		"address_j": "강원도 정선군 사북읍 사북리 366-59",
		"address_r": "강원도 정선군 사북읍 사북2길 6 - 1",
		"street_score": "1",
		"main_product": "더덕 곤드레.취나물 배추",
		"position": {
			"latitude": "37.2273376",
			"longitude": "128.8162189"
		}
	},
	{
		"market_name": "정선아리랑시장",
		"address_j": "강원도 정선군 정선읍 봉양리 349-20",
		"address_r": "강원도 정선군 정선읍 봉양7길 39",
		"street_score": "178",
		"main_product": "황기 산나물",
		"position": {
			"latitude": "37.3803874",
			"longitude": "128.6651583"
		}
	},
	{
		"market_name": "동송시장",
		"address_j": "강원도 철원군 동송읍 이평리 680-1",
		"address_r": "강원도 철원군 동송읍 이평로 47번길 16",
		"street_score": "59",
		"position": {
			"latitude": "38.2088098",
			"longitude": "127.2188759"
		}
	},
	{
		"market_name": "동송전통시장",
		"address_j": "강원도 철원군 동송읍 이평리 678-49",
		"address_r": "강원도 철원군 동송읍 이평로 47번길 19",
		"street_score": "30",
		"position": {
			"latitude": "38.2088919",
			"longitude": "127.2192536"
		}
	},
	{
		"market_name": "신철원시장",
		"address_j": "강원도 철원군 갈말읍 신철원리 697",
		"address_r": "강원도 철원군 갈말읍 삼부연로18번길 16-2",
		"street_score": "20",
		"main_product": "식당 전집 꽈배기",
		"position": {
			"latitude": "38.1447429",
			"longitude": "127.3100328"
		}
	},
	{
		"market_name": "와수시장",
		"address_j": "강원도 철원군 서면 와수리 1171-92",
		"address_r": "강원도 철원군 서면 와수로 184번길 6-3",
		"street_score": "40",
		"main_product": "꿩냉면",
		"position": {
			"latitude": "38.2394849",
			"longitude": "127.4394735"
		}
	},
	{
		"market_name": "제일종합시장",
		"address_j": "강원도 춘천시 죽림동 32",
		"address_r": "강원도 춘천시 약사고개길13",
		"street_score": "8",
		"position": {
			"latitude": "37.8774969",
			"longitude": "127.7260501"
		}
	},
	{
		"market_name": "춘천남부시장",
		"address_j": "강원도 춘천시 효자동 684-11",
		"address_r": "강원도 춘천시 공지로 367",
		"street_score": "0",
		"main_product": "주방용품 가구",
		"position": {
			"latitude": "37.8705462",
			"longitude": "127.7259769"
		}
	},
	{
		"market_name": "춘천동부시장",
		"address_j": "강원도 춘천시 운교동 183",
		"address_r": "강원도 춘천시 동부시장길8",
		"street_score": "0",
		"main_product": "떡집 전집 부침 식당 등",
		"position": {
			"latitude": "37.8772355",
			"longitude": "127.7341140"
		}
	},
	{
		"market_name": "춘천번개시장",
		"address_j": "강원도 춘천시 소양로1가 93-10",
		"address_r": "강원도 춘천시 소양로212-4 새마을금고2층",
		"street_score": "0",
		"position": {
			"latitude": "37.8918482",
			"longitude": "127.7263262"
		}
	},
	{
		"market_name": "춘천서부시장",
		"address_j": "강원도 춘천시 소양로2가 172-1",
		"address_r": "강원도 춘천시 서부대성로12",
		"street_score": "0",
		"main_product": "가정용가구 음식",
		"position": {
			"latitude": "37.8849344",
			"longitude": "127.7245123"
		}
	},
	{
		"market_name": "춘천중앙시장",
		"address_j": "강원도 춘천시 중앙로2가 42-18",
		"address_r": "강원도 춘천시 중앙로77번길 4-4",
		"street_score": "47",
		"position": {
			"latitude": "37.8784892",
			"longitude": "127.7257288"
		}
	},
	{
		"market_name": "춘천풍물시장",
		"address_j": "강원도 춘천시 온의동 148-1",
		"address_r": "강원도 춘천시 온의동 영서로 2352-48 ",
		"street_score": "208",
		"position": {
			"latitude": null,
			"longitude": null
		}
	},
	{
		"market_name": "후평일단지시장",
		"address_j": "강원도 춘천시 후평동 691-22",
		"address_r": "강원도 춘천시 후평길 104",
		"street_score": "9",
		"main_product": "메밀전",
		"position": {
			"latitude": null,
			"longitude": null
		}
	},
	{
		"market_name": "장성중앙시장",
		"address_j": "강원도 태백시 장성동 159-2",
		"address_r": "강원도 태백시 장성1길 190",
		"street_score": "4",
		"main_product": "산나물",
		"position": {
			"latitude": "37.1006843",
			"longitude": "129.0097130"
		}
	},
	{
		"market_name": "황지자유시장",
		"address_j": "강원도 태백시 통동 75-32",
		"address_r": "강원도 태백시 시장안길 18 - 1",
		"street_score": "3",
		"position": {
			"latitude": null,
			"longitude": null
		}
	},
	{
		"market_name": "봉평전통시장(봉평시장)",
		"address_j": "강원도 평창군 봉평면 창동리 397-34",
		"address_r": "강원도 평창군 봉평면 허생원장터길15",
		"street_score": "83",
		"position": {
			"latitude": "37.6155895",
			"longitude": "128.3772661"
		}
	},
	{
		"market_name": "진부전통시장",
		"address_j": "강원도 평창군 진부면 하진부리 206-95",
		"address_r": "강원도 평창군 진부면 진부새싹길 28 - 7",
		"street_score": "80",
		"main_product": "오대산갓김치 갓호떡 갓만두",
		"position": {
			"latitude": "37.6382177",
			"longitude": "128.5579266"
		}
	},
	{
		"market_name": "평창대화시장",
		"address_j": "강원도 평창군 대화면 대화리 1001-5",
		"address_r": "강원도 평창군 대화면 대화3길 46",
		"street_score": "49",
		"position": {
			"latitude": "37.5005332",
			"longitude": "128.4549073"
		}
	},
	{
		"market_name": "평창올림픽시장(평창전통시장)",
		"address_j": "강원도 평창군 평창읍 하리 55-11",
		"address_r": "강원도 평창군 평창읍 평창시장1길 10",
		"street_score": "1",
		"main_product": "메밀부치기",
		"position": {
			"latitude": "37.3668027",
			"longitude": "128.3946546"
		}
	},
	{
		"market_name": "홍천시장",
		"address_j": "강원도 홍천군 홍천읍 신장대리 11-32",
		"address_r": "강원도 홍천군 홍천읍 홍천로7길 14",
		"street_score": "4",
		"position": {
			"latitude": "37.6905545",
			"longitude": "127.8858998"
		}
	},
	{
		"market_name": "홍천중앙시장",
		"address_j": "강원도 홍천군 홍천읍 신장대리 5-3",
		"address_r": "강원도 홍천군 홍천읍 홍천로 8길 17",
		"street_score": "1",
		"position": {
			"latitude": "37.6910780",
			"longitude": "127.8861582"
		}
	},
	{
		"market_name": "화천재래시장",
		"address_j": "강원도 화천군 화천읍 하리 50-7",
		"address_r": "강원도 화천군 화천읍 중앙로 24길12",
		"street_score": "1",
		"position": {
			"latitude": "38.1038994",
			"longitude": "127.7064047"
		}
	},
	{
		"market_name": "횡성시장",
		"address_j": "강원도 횡성군 횡성읍 삼일로 4-2",
		"address_r": "강원도 횡성군 횡성읍 읍상리 277-3",
		"street_score": "6",
		"main_product": "더덕.한우",
		"position": {
			"latitude": "37.4898109",
			"longitude": "127.9866813"
		}
	},
	{
		"market_name": "가평잣고을전통시장",
		"address_j": "경기도 가평군 읍내리 404",
		"address_r": "경기도 가평군 장터2길10",
		"street_score": "40",
		"position": {
			"latitude": "37.8297848",
			"longitude": "127.5148874"
		}
	},
	{
		"market_name": "능곡시장",
		"address_j": "경기도 고양시 덕양구 토당동 347",
		"address_r": "경기도 고양시 덕양구 능곡로 12의 9",
		"street_score": "30",
		"main_product": "축산물  수산물  농산물",
		"position": {
			"latitude": "37.6213668",
			"longitude": "126.8207768"
		}
	},
	{
		"market_name": "덕이동패션1번지",
		"address_j": "경기도 고양시 일산서구 덕이동 384-1",
		"address_r": "경기도 고양시 일산서구 덕이동 탄중로101번길 13",
		"street_score": "0",
		"main_product": "의류",
		"position": {
			"latitude": null,
			"longitude": null
		}
	},
	{
		"market_name": "원당시장",
		"address_j": "경기도 고양시 덕양구 성사동 697-14",
		"address_r": "경기도 고양시 덕양구 호곡로 790번길 17",
		"street_score": "0",
		"position": {
			"latitude": null,
			"longitude": null
		}
	},
	{
		"market_name": "일산시장",
		"address_j": "경기도 고양시 일산서구 일산동 617-20",
		"address_r": "경기도 고양시 일산서구 일행로 12번길 9",
		"street_score": "0",
		"position": {
			"latitude": null,
			"longitude": null
		}
	},
	{
		"market_name": "과천새서울프라자시장",
		"address_j": "경기도 과천시 별양동 1-18",
		"address_r": "경기도 과천시 별양상가 2로 20",
		"street_score": "0",
		"position": {
			"latitude": "37.4268349",
			"longitude": "126.9925709"
		}
	},
	{
		"market_name": "제일쇼핑시장",
		"address_j": "경기도 과천시 별양동 1-13",
		"address_r": "경기도 과천시 별양상가 2로 14",
		"street_score": "0",
		"position": {
			"latitude": "37.4273330",
			"longitude": "126.9930154"
		}
	},
	{
		"market_name": "광명새마을시장",
		"address_j": "경기도 광명시 광명동 342-12",
		"address_r": "경기도 광명시 광명로 831번지 4의1",
		"street_score": "9",
		"position": {
			"latitude": "37.4736653",
			"longitude": "126.8514116"
		}
	},
	{
		"market_name": "광명시장",
		"address_j": "경기도 광명시 광명동 158-44",
		"address_r": "경기도 광명시 광이로13번길 17-5",
		"street_score": "70",
		"position": {
			"latitude": "37.4799482",
			"longitude": "126.8561647"
		}
	},
	{
		"market_name": "경안시장",
		"address_j": "경기도 광주시 경안동 33-16",
		"address_r": "경기도 광주시 중앙로123번길 13 ",
		"street_score": "10",
		"position": {
			"latitude": "37.4100598",
			"longitude": "127.2567690"
		}
	},
	{
		"market_name": "구리전통시장",
		"address_j": "경기도 구리시 수택동 417",
		"address_r": "경기도 구리시 검배로 6번길 31",
		"street_score": "65",
		"position": {
			"latitude": "37.5995577",
			"longitude": "127.1399106"
		}
	},
	{
		"market_name": "군포역전시장",
		"address_j": "경기도 군포시 당동 749",
		"address_r": "경기도 군포시 군포로548-1",
		"street_score": "3",
		"position": {
			"latitude": "37.3548974",
			"longitude": "126.9469978"
		}
	},
	{
		"market_name": "산본시장",
		"address_j": "경기도 군포시 산본동 221-5",
		"address_r": "경기도 군포시 산본천로 181",
		"street_score": "0",
		"position": {
			"latitude": "37.3696772",
			"longitude": "126.9381278"
		}
	},
	{
		"market_name": "김포중앙시장",
		"address_j": "경기도 김포시 북변동 375-11",
		"address_r": "경기도 김포시 북면중로55-1",
		"street_score": "0",
		"position": {
			"latitude": null,
			"longitude": null
		}
	},
	{
		"market_name": "양곡시장",
		"address_j": "경기도 김포시 양촌읍 양곡리 415-6",
		"address_r": "경기도 김포시 양촌읍 양곡1로 42-2",
		"street_score": "0",
		"position": {
			"latitude": "37.6544293",
			"longitude": "126.6238189"
		}
	},
	{
		"market_name": "양곡장터시장",
		"address_j": "경기도 김포시 양촌읍 양곡리 419-4 16호",
		"address_r": "경기도 김포시 양곡1로 54",
		"street_score": "1",
		"position": {
			"latitude": "37.6553678",
			"longitude": "126.6235246"
		}
	},
	{
		"market_name": "통진시장",
		"address_j": "경기도 김포시 서암리 721-8",
		"address_r": "경기도 김포시 서암로84번길 29",
		"street_score": "0",
		"position": {
			"latitude": "37.6912726",
			"longitude": "126.5996474"
		}
	},
	{
		"market_name": "남양주장현 전통시장",
		"address_j": "경기도 남양주시 장현리 380-15",
		"address_r": "경기도 남양주시 진접읍 장현로 77의100",
		"street_score": "0",
		"position": {
			"latitude": "37.7176160",
			"longitude": "127.1808911"
		}
	},
	{
		"market_name": "동두천제일시장",
		"address_j": "경기도 동두천시 생연동 823",
		"address_r": "경기도 동두천시 정장로 11-12 ",
		"street_score": "0",
		"position": {
			"latitude": "37.9051737",
			"longitude": "127.0522262"
		}
	},
	{
		"market_name": "동두천큰시장",
		"address_j": "경기도 동두천시 생연동 698-1",
		"address_r": "경기도 동두천시 큰시장로 52",
		"street_score": "1",
		"main_product": "야채 과일 육류 식자재",
		"position": {
			"latitude": "37.9004784",
			"longitude": "127.0521003"
		}
	},
	{
		"market_name": "세아프라자상가",
		"address_j": "경기도 동두천시 큰시장로 64",
		"address_r": "경기도 동두천시 큰시장로 64",
		"street_score": "2",
		"position": {
			"latitude": "37.9006861",
			"longitude": "127.0503172"
		}
	},
	{
		"market_name": "중앙시장",
		"address_j": "경기도 동두천시 생연동 607-27",
		"address_r": "경기도 동두천시 중앙로285번길 9",
		"street_score": "9",
		"position": {
			"latitude": "37.9069022",
			"longitude": "127.0537404"
		}
	},
	{
		"market_name": "강남시장",
		"address_j": "경기도 부천시 도당동 276-4",
		"address_r": "경기도 부천시 옥산로154번길 20",
		"street_score": "3",
		"main_product": "야채  과일  정육",
		"position": {
			"latitude": "37.5072442",
			"longitude": "126.7814033"
		}
	},
	{
		"market_name": "고리울동굴시장",
		"address_j": "경기도 부천시 오정구 고강동 407",
		"address_r": "경기도 부천시 고리울로64번길 27",
		"street_score": "0",
		"main_product": "야채 과일 즉석식품 숙녀복",
		"position": {
			"latitude": "37.5258289",
			"longitude": "126.8227001"
		}
	},
	{
		"market_name": "부천상동시장",
		"address_j": "경기도 부천시 상동 236-5",
		"address_r": "경기도 부천시 석천로60번길 51",
		"street_score": "19",
		"position": {
			"latitude": "37.4923780",
			"longitude": "126.7642780"
		}
	},
	{
		"market_name": "부천자유시장",
		"address_j": "경기도 부천시 소사구 심곡본동 543",
		"address_r": "경기도 부천시 소사구 자유로 33",
		"street_score": "47",
		"main_product": "순대국 야채 생선 건어물",
		"position": {
			"latitude": null,
			"longitude": null
		}
	},
	{
		"market_name": "부천제일시장",
		"address_j": "경기도 부천시 원종동 298",
		"address_r": "경기도 부천시 고강로40번길 55",
		"street_score": "9",
		"main_product": "야채 정육 과일 수산",
		"position": {
			"latitude": "37.5279553",
			"longitude": "126.8089285"
		}
	},
	{
		"market_name": "부천중동시장",
		"address_j": "경기도 부천시 중동 725-11",
		"address_r": "경기도 부천시 부흥로 200번길28",
		"street_score": "19",
		"main_product": "야채 정육 생선",
		"position": {
			"latitude": "37.4949051",
			"longitude": "126.7643418"
		}
	},
	{
		"market_name": "부천한신시장",
		"address_j": "경기도 부천시 소사본동 196-9",
		"address_r": "경기도 부천시 은성로 76번길10",
		"street_score": "6",
		"main_product": "야채 정육",
		"position": {
			"latitude": "37.4748280",
			"longitude": "126.7990332"
		}
	},
	{
		"market_name": "소사종합시장",
		"address_j": "경기도 부천시 소사본동 78-34",
		"address_r": "경기도 부천시 호현로 474번길 27",
		"street_score": "1",
		"main_product": "떡 정육",
		"position": {
			"latitude": "37.4791113",
			"longitude": "126.7942420"
		}
	},
	{
		"market_name": "신흥시장",
		"address_j": "경기도 부천시 삼정동 315",
		"address_r": "경기도 부천시 오정구 평천로721번길 14-2",
		"street_score": "0",
		"main_product": "정육 소세지",
		"position": {
			"latitude": null,
			"longitude": null
		}
	},
	{
		"market_name": "역곡남부시장",
		"address_j": "경기도 부천시 소사구 괴안동 107-8",
		"address_r": "경기도 부천시 부광로16번길 33 ",
		"street_score": "1",
		"main_product": "생선  야채  정육",
		"position": {
			"latitude": "37.4825265",
			"longitude": "126.8115363"
		}
	},
	{
		"market_name": "역곡상상시장(역곡북부시장)",
		"address_j": "경기도 부천시 원미구 역곡동 84-7",
		"address_r": "경기도 부천시 원미구 부일로749번길 31",
		"street_score": "5",
		"main_product": "야채 과일 정육",
		"position": {
			"latitude": null,
			"longitude": null
		}
	},
	{
		"market_name": "오정시장",
		"address_j": "경기도 부천시 오정동 582-30",
		"address_r": "경기도 부천시 부천로 470번길 50",
		"street_score": "3",
		"main_product": "과일  야채  생선  가공식품",
		"position": {
			"latitude": "37.5259807",
			"longitude": "126.7856926"
		}
	},
	{
		"market_name": "원미부흥시장",
		"address_j": "경기도 부천시 원미동 118-18",
		"address_r": "경기도 부천시 부천로 96번길81",
		"street_score": "4",
		"main_product": "야채 수산물",
		"position": {
			"latitude": "37.4922034",
			"longitude": "126.7899674"
		}
	},
	{
		"market_name": "원미종합시장",
		"address_j": "경기도 부천시 원미동 97-12",
		"address_r": "경기도 부천시 조종로 49번길 21-3",
		"street_score": "8",
		"main_product": "반찬 족발 순대",
		"position": {
			"latitude": "37.4936774",
			"longitude": "126.7901843"
		}
	},
	{
		"market_name": "원종시장",
		"address_j": "경기도 부천시 원종동 367",
		"address_r": "경기도 부천시 오정구 삼작로 400",
		"street_score": "3",
		"main_product": "음식점",
		"position": {
			"latitude": null,
			"longitude": null
		}
	},
	{
		"market_name": "원종종합시장",
		"address_j": "경기도 부천시 원종동 372-1",
		"address_r": "경기도 부천시 삼작로 394",
		"street_score": "7",
		"main_product": "야채 생선 정육",
		"position": {
			"latitude": "37.5197128",
			"longitude": "126.8055687"
		}
	},
	{
		"market_name": "원종중앙시장",
		"address_j": "경기도 부천시 원종동 209-5",
		"address_r": "경기도 부천시 성오로 124번길 47",
		"street_score": "15",
		"main_product": "야채  과일",
		"position": {
			"latitude": "37.5250651",
			"longitude": "126.8023169"
		}
	},
	{
		"market_name": "조공시장",
		"address_j": "경기도 부천시 괴안동 40",
		"address_r": "경기도 부천시 소사구 범안로 8번길 11",
		"street_score": "7",
		"position": {
			"latitude": null,
			"longitude": null
		}
	},
	{
		"market_name": "청과물시장",
		"address_j": "경기도 부천시 심곡본동 659",
		"address_r": "경기도 부천시 경인로206번길 43",
		"street_score": "0",
		"main_product": "농산물",
		"position": {
			"latitude": "37.4815795",
			"longitude": "126.7779793"
		}
	},
	{
		"market_name": "금광시장",
		"address_j": "경기도 성남시 중원구 금광동 4622",
		"address_r": "경기도 성남시 산성대로426번길 5",
		"street_score": "0",
		"position": {
			"latitude": "37.4500856",
			"longitude": "127.1600704"
		}
	},
	{
		"market_name": "금호시장",
		"address_j": "경기도 성남시 분당구 수내동 32",
		"address_r": "경기도 성남시 분당구 내정로 165번길 38",
		"street_score": "3",
		"main_product": "음식점",
		"position": {
			"latitude": "37.3767071",
			"longitude": "127.1162823"
		}
	},
	{
		"market_name": "단대전통시장",
		"address_j": "경기도 성남시 중원구 금광동 10",
		"address_r": "경기도 성남시 중원구 광명로289",
		"street_score": "0",
		"main_product": "남원목기 혼수품목",
		"position": {
			"latitude": "37.4443434",
			"longitude": "127.1583285"
		}
	},
	{
		"market_name": "돌고래시장",
		"address_j": "경기도 성남시 분당구 수내동 53",
		"address_r": "경기도 성남시 분당구  내정로174번길 42 파크타운서안아파트",
		"street_score": "0",
		"position": {
			"latitude": "37.3710461",
			"longitude": "127.1225410"
		}
	},
	{
		"market_name": "동신종합시장",
		"address_j": "경기도 성남시 분당구 수내동 돌마로 361",
		"address_r": "경기도 성남시 분당구 수내동 돌마로 361",
		"street_score": "0",
		"position": {
			"latitude": null,
			"longitude": null
		}
	},
	{
		"market_name": "모란종합시장",
		"address_j": "경기도 성남시 중원구 성남동 4190",
		"address_r": "경기도 성남시 중원구 둔촌대로 79",
		"street_score": "20",
		"main_product": "참기름 들기름 잡곡 식당",
		"position": {
			"latitude": "37.4302481",
			"longitude": "127.1279357"
		}
	},
	{
		"market_name": "미래타운제1종합시장",
		"address_j": "경기도 성남시 분당구 서현동 307",
		"address_r": "경기도 성남시 분당구 불정로386번길 10(서현동, 효자촌미래타운아파트)",
		"street_score": "0",
		"position": {
			"latitude": "37.3732329",
			"longitude": "127.1381852"
		}
	},
	{
		"market_name": "미래타운제2종합시장",
		"address_j": "경기도 성남시 분당구 서현동 311",
		"address_r": "경기도 성남시 분당구 불정로376번길 31",
		"street_score": "0",
		"position": {
			"latitude": "37.3722550",
			"longitude": "127.1388711"
		}
	},
	{
		"market_name": "분당우성시장",
		"address_j": "경기도 성남시 분당구 서현동 94-3",
		"address_r": "경기도 성남시 분당구 중앙공원로40번길 42",
		"street_score": "0",
		"position": {
			"latitude": "37.3781753",
			"longitude": "127.1323782"
		}
	},
	{
		"market_name": "분당종합시장",
		"address_j": "경기도 성남시 분당구 수내동 83",
		"address_r": "경기도 성남시 분당구 돌마로 366번길 42",
		"street_score": "0",
		"position": {
			"latitude": "37.3671790",
			"longitude": "127.1267477"
		}
	},
	{
		"market_name": "상대원시장",
		"address_j": "경기도 성남시 중원구 상대원동 2985-1",
		"address_r": "경기도 성남시 중원구 희망로344번길 6",
		"street_score": "56",
		"position": {
			"latitude": "37.4359823",
			"longitude": "127.1587738"
		}
	},
	{
		"market_name": "성남남한산성시장(은행골목시장)",
		"address_j": "경기도 성남시 중원구 은행동 1565 1",
		"address_r": "경기도 성남시 중원구 산성대로518번길 7",
		"street_score": "9",
		"position": {
			"latitude": "37.4569521",
			"longitude": "127.1644382"
		}
	},
	{
		"market_name": "야탑에이스코아시장",
		"address_j": "경기도 성남시 분당구 야탑동 502",
		"address_r": "경기도 성남시 분당구 야탑로 64",
		"street_score": "0",
		"main_product": "농산물 직판장",
		"position": {
			"latitude": "37.4095074",
			"longitude": "127.1259797"
		}
	},
	{
		"market_name": "은행시장",
		"address_j": "경기도 성남시 중원구 은행2동 1553",
		"address_r": "경기도 성남시 중원구 산성대로 526",
		"street_score": "0",
		"position": {
			"latitude": "37.4575899",
			"longitude": "127.1644846"
		}
	},
	{
		"market_name": "코끼리시장",
		"address_j": "경기도 성남시 분당구 수내동 56",
		"address_r": "경기도 성남시 분당구 내정로 166번길 7-6",
		"street_score": "2",
		"position": {
			"latitude": "37.3731117",
			"longitude": "127.1204219"
		}
	},
	{
		"market_name": "코코프라자시장",
		"address_j": "경기도 성남시 서현동 248-5번지 1층",
		"address_r": "경기도 성남시 서현로210번길 20",
		"street_score": "0",
		"main_product": "병원",
		"position": {
			"latitude": "37.3858444",
			"longitude": "127.1240452"
		}
	},
	{
		"market_name": "하대원시장",
		"address_j": "경기도 성남시 중원구 하대원동 266의1",
		"address_r": "경기도 성남시 마지로 118 ",
		"street_score": "0",
		"main_product": "농산물 과일",
		"position": {
			"latitude": "37.4275339",
			"longitude": "127.1420631"
		}
	},
	{
		"market_name": "현대시장",
		"address_j": "경기도 성남시 수정구 태평동 3683",
		"address_r": "경기도 성남시 수정구 수정북로18",
		"street_score": "5",
		"position": {
			"latitude": "37.4416997",
			"longitude": "127.1319749"
		}
	},
	{
		"market_name": "현대시장(분당)",
		"address_j": "경기도 성남시 서현동 94번지",
		"address_r": "경기도 성남시 중앙공원로40번길 8",
		"street_score": "0",
		"position": {
			"latitude": "37.3797415",
			"longitude": "127.1302030"
		}
	},
	{
		"market_name": "현대프라자시장",
		"address_j": "경기도 성남시 분당구 수내동 79-2",
		"address_r": "경기도 성남시 분당구 돌마로 364",
		"street_score": "0",
		"position": {
			"latitude": "37.3699863",
			"longitude": "127.1236658"
		}
	},
	{
		"market_name": "모란가축시장",
		"address_j": "경기도 성남시 중원구 성남동 4190",
		"address_r": "경기도 성남시 중원구 둔촌대로 79",
		"street_score": "0",
		"position": {
			"latitude": "37.4302481",
			"longitude": "127.1279357"
		}
	},
	{
		"market_name": "미금현대벤처빌시장",
		"address_j": "경기도 성남시 분당구 구미동 26-1",
		"address_r": "경기도 성남시 분당구 돌마로90번길 8 ",
		"street_score": "0",
		"position": {
			"latitude": "37.3492867",
			"longitude": "127.1117755"
		}
	},
	{
		"market_name": "미래타운A상가",
		"address_j": "경기도 성남시 분당구 서현동 307",
		"address_r": "경기도 성남시 분당구 불정로386번길 10 미래타운A상가",
		"street_score": "0",
		"position": {
			"latitude": "37.3732329",
			"longitude": "127.1381852"
		}
	},
	{
		"market_name": "범한프라자시장",
		"address_j": "경기도 성남시 분당구 서현동 312-3",
		"address_r": "경기도 성남시 분당구 불정로376번길 37(서현동)",
		"street_score": "0",
		"position": {
			"latitude": "37.3716281",
			"longitude": "127.1394439"
		}
	},
	{
		"market_name": "청구문화시장",
		"address_j": "경기도 성남시 분당구수내동 32",
		"address_r": "경기도 성남시 분당구 내정로165번길 38",
		"street_score": "0",
		"position": {
			"latitude": "37.3767071",
			"longitude": "127.1162823"
		}
	},
	{
		"market_name": "구매탄시장",
		"address_j": "경기도 수원시 영통구 매탄동 172-72",
		"address_r": "경기도 수원시 영통구 매여울로 53번길 50의1",
		"street_score": "0",
		"position": {
			"latitude": "37.2725999",
			"longitude": "127.0419171"
		}
	},
	{
		"market_name": "구천동공구상가",
		"address_j": "경기도 수원시 팔달구 구천동 46의 23",
		"address_r": "경기도 수원시 팔달구 매산로 161",
		"street_score": "122",
		"main_product": "대장간제품  공산품 및 농기구 등",
		"position": {
			"latitude": "37.2734932",
			"longitude": "127.0178813"
		}
	},
	{
		"market_name": "권선종합시장",
		"address_j": "경기도 수원시 권선동 1051",
		"address_r": "경기도 수원시 권선구 세권로 185",
		"street_score": "0",
		"main_product": "족발  순대",
		"position": {
			"latitude": "37.2560685",
			"longitude": "127.0247128"
		}
	},
	{
		"market_name": "남문로데오시장",
		"address_j": "경기도 수원시 팔달구 교동 3-6",
		"address_r": "경기도 수원시 팔달구 행궁로 88 센터빌딩 4층",
		"street_score": "0",
		"position": {
			"latitude": "37.2746400",
			"longitude": "127.0155107"
		}
	},
	{
		"market_name": "남문패션1번가시장",
		"address_j": "경기도 수원시 팔달구 영동 43의 5  3층",
		"address_r": "경기도 수원시 팔달구 중부대로13번길 7",
		"street_score": "19",
		"main_product": "의류  음식  잡화(금은보석  구두  속옷)  헤어  안경",
		"position": {
			"latitude": "37.2756246",
			"longitude": "127.0182105"
		}
	},
	{
		"market_name": "매산시장",
		"address_j": "경기도 수원시 팔달구 매산로1가 46-7",
		"address_r": "경기도 수원시 팔달구 매산로 16",
		"street_score": "0",
		"main_product": "정육",
		"position": {
			"latitude": "37.2671971",
			"longitude": "127.0032748"
		}
	},
	{
		"market_name": "못골종합시장",
		"address_j": "경기도 수원시 팔달구 지동 397-6",
		"address_r": "경기도 수원시 팔달구 수원천로 258번길 10의 12",
		"street_score": "0",
		"main_product": "생선  떡  과일  야채  정육  건어물",
		"position": {
			"latitude": "37.2764287",
			"longitude": "127.0204060"
		}
	},
	{
		"market_name": "미나리광시장",
		"address_j": "경기도 수원시 팔달구 지동 406",
		"address_r": "경기도 수원시 팔달구 수원천로 266의 4",
		"street_score": "106",
		"main_product": "야채  생선  고춧가루  잡화",
		"position": {
			"latitude": "37.2771922",
			"longitude": "127.0194984"
		}
	},
	{
		"market_name": "북수원시장",
		"address_j": "경기도 수원시 장안구 파장동 572-35",
		"address_r": "경기도 수원시 장안구 파장로 82번길 9",
		"street_score": "0",
		"main_product": "농산물 수산물 의류",
		"position": {
			"latitude": "37.3070447",
			"longitude": "126.9921822"
		}
	},
	{
		"market_name": "시민상가시장",
		"address_j": "경기도 수원시 팔달구 영동10의 18",
		"address_r": "경기도 수원시 팔달구 팔달문로4번길 23",
		"street_score": "0",
		"main_product": "의류",
		"position": {
			"latitude": "37.2764425",
			"longitude": "127.0180285"
		}
	},
	{
		"market_name": "역전시장",
		"address_j": "경기도 수원시 팔달구 매산로1가 58-20",
		"address_r": "경기도 수원시 팔달구 매산로 2의 10",
		"street_score": "0",
		"position": {
			"latitude": "37.2666505",
			"longitude": "127.0018330"
		}
	},
	{
		"market_name": "연무시장",
		"address_j": "경기도 수원시 장안구 연무동 269",
		"address_r": "경기도 수원시 장안구 월드컵로 428번길",
		"street_score": "0",
		"main_product": "음식점  참기름",
		"position": {
			"latitude": null,
			"longitude": null
		}
	},
	{
		"market_name": "영동시장",
		"address_j": "경기도 수원시 팔달구 영동 8",
		"address_r": "경기도 수원시 팔달구 수원천로 255번길 6",
		"street_score": "0",
		"main_product": "한복 이불 커텐 의류 신발 가방 식품 등",
		"position": {
			"latitude": "37.2768106",
			"longitude": "127.0186604"
		}
	},
	{
		"market_name": "장안문거북시장",
		"address_j": "경기도 수원시 장안구 영화동 273-5",
		"address_r": "경기도 수원시 장안구 수성로370번길 52",
		"street_score": "0",
		"position": {
			"latitude": "37.2915941",
			"longitude": "127.0138314"
		}
	},
	{
		"market_name": "정자시장",
		"address_j": "경기도 수원시 장안구 정자동 73-10",
		"address_r": "경기도 수원시 장안구 수성로 261번길 16",
		"street_score": "2",
		"position": {
			"latitude": "37.2906594",
			"longitude": "127.0008425"
		}
	},
	{
		"market_name": "조원시장",
		"address_j": "경기도 수원시 장안구 조원동 767",
		"address_r": "경기도 수원시 장안구 송정로 187번길 35의 1새마을금고 지층",
		"street_score": "0",
		"position": {
			"latitude": "37.2999476",
			"longitude": "127.0150643"
		}
	},
	{
		"market_name": "지동시장",
		"address_j": "경기도 수원시 팔달구 지동 402-2",
		"address_r": "경기도 수원시 팔달구 팔달문로 19번지",
		"street_score": "8",
		"main_product": "순대",
		"position": {
			"latitude": "37.2779032",
			"longitude": "127.0196088"
		}
	},
	{
		"market_name": "팔달문시장",
		"address_j": "경기도 수원시 팔달구 영동 6의 10 2층",
		"address_r": "경기도 수원시 팔달구 정조로776번길 18",
		"street_score": "19",
		"main_product": "의류",
		"position": {
			"latitude": "37.2770829",
			"longitude": "127.0182021"
		}
	},
	{
		"market_name": "화서시장",
		"address_j": "경기도 수원시 팔달구 화서동 97-1",
		"address_r": "경기도 수원시 팔달구 동말로 72",
		"street_score": "16",
		"main_product": "농수산물  가공식품  생활용품",
		"position": {
			"latitude": "37.2785721",
			"longitude": "127.0020936"
		}
	},
	{
		"market_name": "시흥삼미시장",
		"address_j": "경기도 시흥시 신천동 738-4",
		"address_r": "경기도 시흥시 삼미시장2길 35 ",
		"street_score": "19",
		"position": {
			"latitude": "37.4404222",
			"longitude": "126.7838062"
		}
	},
	{
		"market_name": "정왕시장",
		"address_j": "경기도 시흥시 정왕동 1203",
		"address_r": "경기도 시흥시 정왕시장길 51",
		"street_score": "0",
		"main_product": "야채  과일  생선  음식",
		"position": {
			"latitude": "37.3458011",
			"longitude": "126.7485598"
		}
	},
	{
		"market_name": "도일시장",
		"address_j": "경기도 시흥시 거모동 1669-22",
		"address_r": "경기도 시흥시 도일로 100의 4",
		"street_score": "10",
		"position": {
			"latitude": "37.3395376",
			"longitude": "126.7841134"
		}
	},
	{
		"market_name": "스타프라자전통시장",
		"address_j": "경기도 안산시 상록구 성포동 583",
		"address_r": "경기도 안산시 상록구 화랑로 513",
		"street_score": "0",
		"position": {
			"latitude": "37.3208543",
			"longitude": "126.8446288"
		}
	},
	{
		"market_name": "신안코아",
		"address_j": "경기도 안산시 상록구 본오동 871",
		"address_r": "경기도 안산시 상록구 반석로 44",
		"street_score": "6",
		"position": {
			"latitude": "37.2950149",
			"longitude": "126.8649276"
		}
	},
	{
		"market_name": "신안프라자전통시장",
		"address_j": "경기도 안산시 상록구 본오동 871",
		"address_r": "경기도 안산시 상록구 반석로 54",
		"street_score": "2",
		"position": {
			"latitude": "37.2964617",
			"longitude": "126.8662039"
		}
	},
	{
		"market_name": "안산시시민시장",
		"address_j": "경기도 안산시 단원구 초지동 604-4",
		"address_r": "경기도 안산시 단원구 화랑로 149",
		"street_score": "168",
		"main_product": "횟집  칼국수  막걸리  한약재  냉면",
		"position": {
			"latitude": "37.3253651",
			"longitude": "126.8050905"
		}
	},
	{
		"market_name": "월드프라자",
		"address_j": "경기도 안산시 상록구 본오동 872",
		"address_r": "경기도 안산시 상록구 본삼로 60",
		"street_score": "0",
		"position": {
			"latitude": "37.3005539",
			"longitude": "126.8664166"
		}
	},
	{
		"market_name": "안성시장",
		"address_j": "경기도 안성시 서인동 13의1",
		"address_r": "경기도 안성시 시장길 37",
		"street_score": "13",
		"position": {
			"latitude": "37.0065591",
			"longitude": "127.2703920"
		}
	},
	{
		"market_name": "죽산시장",
		"address_j": "경기도 안성시 죽산면 죽산리 439-3",
		"address_r": "경기도 안성시 죽산면 중서길 8-9",
		"street_score": "10",
		"position": {
			"latitude": "37.0760016",
			"longitude": "127.4233946"
		}
	},
	{
		"market_name": "중앙시장",
		"address_j": "경기도 안성시 서인동 81",
		"address_r": "경기도 안성시 장기로45번길 30",
		"street_score": "35",
		"position": {
			"latitude": "37.0065640",
			"longitude": "127.2688001"
		}
	},
	{
		"market_name": "박달시장",
		"address_j": "경기도 안양시 만안구 박달동 21-8",
		"address_r": "경기도 안양시 만안구 양화로 132-3",
		"street_score": "28",
		"main_product": "정육 칼국수 누룽지 꽈배기 떡갈비",
		"position": {
			"latitude": "37.4046491",
			"longitude": "126.9096198"
		}
	},
	{
		"market_name": "석수시장",
		"address_j": "경기도 안양시 만안구 석수동 287",
		"address_r": "경기도 안양시 만안구 석천로 171번길 20",
		"street_score": "0",
		"position": {
			"latitude": "37.4128595",
			"longitude": "126.9079985"
		}
	},
	{
		"market_name": "안양관양시장",
		"address_j": "경기도 안양시 동안구 관양동 1407-8",
		"address_r": "경기도 안양시 동안구 관평로 336번길 31",
		"street_score": "37",
		"position": {
			"latitude": "37.4052246",
			"longitude": "126.9593092"
		}
	},
	{
		"market_name": "안양남부시장",
		"address_j": "경기도 안양시 만안구 안양동 622-378",
		"address_r": "경기도 안양시 만안구 장내로 140번길 51",
		"street_score": "9",
		"main_product": "1차농수산물과일",
		"position": {
			"latitude": "37.3959244",
			"longitude": "126.9249570"
		}
	},
	{
		"market_name": "안양중앙인정시장",
		"address_j": "경기도 안양시 만안구 안양동 711-280",
		"address_r": "경기도 안양시 만안구 냉천로185번길 8",
		"street_score": "290",
		"position": {
			"latitude": "37.3964863",
			"longitude": "126.9195925"
		}
	},
	{
		"market_name": "안양호계종합시장",
		"address_j": "경기도 안양시 동안구 호계동 960-4",
		"address_r": "경기도 안양시 동안구 흥안대로 113",
		"street_score": "3",
		"position": {
			"latitude": "37.3703413",
			"longitude": "126.9572916"
		}
	},
	{
		"market_name": "중앙시장",
		"address_j": "경기도 안양시 만안구 안양4동 676-44",
		"address_r": "경기도 안양시 만안구 냉천로 196",
		"street_score": "7",
		"position": {
			"latitude": "37.3975972",
			"longitude": "126.9195878"
		}
	},
	{
		"market_name": "호계시장",
		"address_j": "경기도 안양시 동안구 호계동 960-4",
		"address_r": "경기도 안양시 동안구 흥안대로 113",
		"street_score": "9",
		"position": {
			"latitude": "37.3703413",
			"longitude": "126.9572916"
		}
	},
	{
		"market_name": "양수리전통시장(양평양수리시장)",
		"address_j": "경기도 양평군 양서면 복포리",
		"address_r": "경기도 양평군 양서면 양수로 3의15",
		"street_score": "42",
		"position": {
			"latitude": null,
			"longitude": null
		}
	},
	{
		"market_name": "양평물맑은시장",
		"address_j": "경기도 양평군 양서면 양근리 409-1",
		"address_r": "경기도 양평군 양평읍 양평시장길18번길 3",
		"street_score": "450",
		"position": {
			"latitude": "37.4908093",
			"longitude": "127.4918097"
		}
	},
	{
		"market_name": "용문천년시장",
		"address_j": "경기도 양평군 용문면 다문리",
		"address_r": "경기도 양평군 용문면 시장2길",
		"street_score": "49",
		"main_product": "용문산 산나물축제",
		"position": {
			"latitude": null,
			"longitude": null
		}
	},
	{
		"market_name": "제일시장",
		"address_j": "경기도 여주시 하동 180-1",
		"address_r": "경기도 여주시 여흥로 57번길 20",
		"street_score": "40",
		"position": {
			"latitude": "37.2988859",
			"longitude": "127.6316343"
		}
	},
	{
		"market_name": "전곡재래시장",
		"address_j": "경기도 연천시 전곡리 479-31",
		"address_r": "경기도 연천시 전곡읍 전곡로172번길 14",
		"street_score": "0",
		"position": {
			"latitude": null,
			"longitude": null
		}
	},
	{
		"market_name": "오색시장",
		"address_j": "경기도 오산시 오산동 853-27",
		"address_r": "경기도 오산시 오산로 272번길 21",
		"street_score": "69",
		"position": {
			"latitude": "37.1513299",
			"longitude": "127.0709348"
		}
	},
	{
		"market_name": "용인중앙시장",
		"address_j": "경기도 용인시 처인구 김량장동 137-1",
		"address_r": "경기도 용인시 처인구 금령로107번길 13",
		"street_score": "109",
		"main_product": "순대 떡",
		"position": {
			"latitude": "37.2367061",
			"longitude": "127.2078089"
		}
	},
	{
		"market_name": "죽전로데오상점가전통시장",
		"address_j": "경기도 용인시 수지구 전동 1003-53",
		"address_r": "경기도 용인시 수지구 용구대로 2725의1",
		"street_score": "0",
		"position": {
			"latitude": "37.3288020",
			"longitude": "127.1086323"
		}
	},
	{
		"market_name": "부곡도깨비시장",
		"address_j": "경기도 의왕시삼동 192-554",
		"address_r": "경기도 의왕시 부곡시장길 18",
		"street_score": "0",
		"position": {
			"latitude": "37.3194723",
			"longitude": "126.9507138"
		}
	},
	{
		"market_name": "의정부시장",
		"address_j": "경기도 의정부시 의정부1동 148-5",
		"address_r": "경기도 의정부시 시민로143번길 40",
		"street_score": "0",
		"position": {
			"latitude": "37.7394396",
			"longitude": "127.0511979"
		}
	},
	{
		"market_name": "의정부제일시장",
		"address_j": "경기도 의정부시 의정부동 160",
		"address_r": "경기도 의정부시 태평로 73번길 20",
		"street_score": "244",
		"position": {
			"latitude": "37.7403875",
			"longitude": "127.0498527"
		}
	},
	{
		"market_name": "의정부청과야채시장",
		"address_j": "경기도 의정부시 의정부동 30-8",
		"address_r": "경기도 의정부시 시민로 157번길",
		"street_score": "0",
		"position": {
			"latitude": null,
			"longitude": null
		}
	},
	{
		"market_name": "관고전통시장",
		"address_j": "경기도 이천시 관고동 10-13",
		"address_r": "경기도 이천시 중리천로 31번길 22",
		"street_score": "20",
		"main_product": "분식류 과일 정육 생선",
		"position": {
			"latitude": "37.2808391",
			"longitude": "127.4403531"
		}
	},
	{
		"market_name": "사기막골도자기시장",
		"address_j": "경기도 이천시 사음동 536",
		"address_r": "경기도 이천시 경충대로2993번길 24(사음동)",
		"street_score": "0",
		"position": {
			"latitude": "37.2948332",
			"longitude": "127.4119430"
		}
	},
	{
		"market_name": "광탄시장",
		"address_j": "경기도 파주시 광탄면 신산리 222-7",
		"address_r": "경기도 파주시 광탄면 해음로 1120번길",
		"street_score": "1",
		"position": {
			"latitude": null,
			"longitude": null
		}
	},
	{
		"market_name": "금촌명동로시장",
		"address_j": "경기도 파주시 금촌동 323-1",
		"address_r": "경기도 파주시 명동길 53",
		"street_score": "0",
		"position": {
			"latitude": "37.7633134",
			"longitude": "126.7734068"
		}
	},
	{
		"market_name": "금촌문화로시장",
		"address_j": "경기도 파주시 금촌동 66-4",
		"address_r": "경기도 파주시 문화로 89-1 ",
		"street_score": "5",
		"position": {
			"latitude": "37.7622412",
			"longitude": "126.7748839"
		}
	},
	{
		"market_name": "금촌전통시장",
		"address_j": "경기도 파주시 금촌동 64-19",
		"address_r": "경기도 파주시 금정 24길 18-6",
		"street_score": "1",
		"main_product": "모랑떡  순대국  모랑주",
		"position": {
			"latitude": "37.7625995",
			"longitude": "126.7738869"
		}
	},
	{
		"market_name": "문산자유시장",
		"address_j": "경기도 파주시 문산읍 문산리 10-23",
		"address_r": "경기도 파주시 문산읍 문향로 57",
		"street_score": "5",
		"position": {
			"latitude": "37.8567275",
			"longitude": "126.7839421"
		}
	},
	{
		"market_name": "봉일천시장",
		"address_j": "경기도 파주시 조리읍 봉일천리 168-4",
		"address_r": "경기도 파주시 조리읍 봉천로 33-1",
		"street_score": "6",
		"position": {
			"latitude": "37.7434902",
			"longitude": "126.8078099"
		}
	},
	{
		"market_name": "적성전통시장",
		"address_j": "경기도 파주시 적성면 마지리 46-8",
		"address_r": "경기도 파주시 적성면 청송로 1023",
		"street_score": "0",
		"position": {
			"latitude": "37.9546165",
			"longitude": "126.9186774"
		}
	},
	{
		"market_name": "서정리시장",
		"address_j": "경기도 평택시 서정동 328-8",
		"address_r": "경기도 평택시 서정역로 40번길 40",
		"street_score": "25",
		"position": {
			"latitude": "37.0578618",
			"longitude": "127.0559371"
		}
	},
	{
		"market_name": "송탄시장",
		"address_j": "경기도 평택시 지산동 745-14",
		"address_r": "경기도 평택시 탄현로 346번길24",
		"street_score": "198",
		"position": {
			"latitude": "37.0821318",
			"longitude": "127.0571020"
		}
	},
	{
		"market_name": "안중시장",
		"address_j": "경기도 평택시 안중읍 안중리 267-1",
		"address_r": "경기도 평택시 안중읍 안현로서3길 29",
		"street_score": "7",
		"position": {
			"latitude": "36.9875338",
			"longitude": "126.9282574"
		}
	},
	{
		"market_name": "중앙시장",
		"address_j": "경기도 평택시 중앙시장로 18-4",
		"address_r": "경기도 평택시 중앙시장로 18-4",
		"street_score": "5",
		"position": {
			"latitude": "37.0798881",
			"longitude": "127.0523670"
		}
	},
	{
		"market_name": "통복시장",
		"address_j": "경기도 평택시 신장동 318-24",
		"address_r": "경기도 평택시 동복시장로 25번길 10",
		"street_score": "99",
		"position": {
			"latitude": null,
			"longitude": null
		}
	},
	{
		"market_name": "운천전통시장",
		"address_j": "경기도 포천시 영북면 운천리 531-5",
		"address_r": "경기도 포천시 영북면 영북로 177번길 25",
		"street_score": "0",
		"position": {
			"latitude": "38.0899372",
			"longitude": "127.2722286"
		}
	},
	{
		"market_name": "일동전통시장",
		"address_j": "경기도 포천시 일동면 1033번지 13-9",
		"address_r": "경기도 포천시 일동면 화동로 1090-14",
		"street_score": "0",
		"position": {
			"latitude": "37.9598079",
			"longitude": "127.3194732"
		}
	},
	{
		"market_name": "덕풍전통시장",
		"address_j": "경기도 하남시 덕풍동 328-12",
		"address_r": "경기도 하남시 수리북로 22",
		"street_score": "10",
		"main_product": "족발  빈대떡  야채",
		"position": {
			"latitude": "37.5415390",
			"longitude": "127.2029214"
		}
	},
	{
		"market_name": "신장전통시장",
		"address_j": "경기도 하남시 신장동 신장전통시장",
		"address_r": "경기도 하남시 신장1로3번길 42",
		"street_score": "4",
		"main_product": "떡",
		"position": {
			"latitude": "37.5378876",
			"longitude": "127.2070363"
		}
	},
	{
		"market_name": "남양시장",
		"address_j": "경기도 화성시 남양리 302-1",
		"address_r": "경기도 화성시 남양읍 글판동길 4",
		"street_score": "99",
		"position": {
			"latitude": "37.2051592",
			"longitude": "126.8023857"
		}
	},
	{
		"market_name": "발안만세시장",
		"address_j": "경기도 화성시 향남읍 평리 81-51",
		"address_r": "경기도 화성시 향남읍 평2길 7",
		"street_score": "100",
		"position": {
			"latitude": "37.1314632",
			"longitude": "126.9094606"
		}
	},
	{
		"market_name": "사강시장",
		"address_j": "경기도 화성시 송산면 사강리 663-1",
		"address_r": "경기도 화성시 송산면 사강로 183-1",
		"street_score": "99",
		"position": {
			"latitude": "37.2132686",
			"longitude": "126.7360226"
		}
	},
	{
		"market_name": "조암시장",
		"address_j": "경기도 화성시 우정읍 조암리 311-3",
		"address_r": "경기도 화성시 우정읍 조암남로 8",
		"street_score": "5",
		"position": {
			"latitude": "37.0821826",
			"longitude": "126.8170608"
		}
	},
	{
		"market_name": "거제고현시장",
		"address_j": "경상남도 거제시 고현동 98-27",
		"address_r": "경상남도 거제시 중앙로 1883-2",
		"street_score": "6",
		"main_product": "수산물",
		"position": {
			"latitude": null,
			"longitude": null
		}
	},
	{
		"market_name": "신부시장",
		"address_j": "경상남도 거제시 장승포동 283_38",
		"address_r": "경상남도 거제시 신부로3길 9",
		"street_score": "0",
		"position": {
			"latitude": "34.8681251",
			"longitude": "128.7300898"
		}
	},
	{
		"market_name": "옥수동새시장",
		"address_j": "경상남도 거제시 능포동 680_7",
		"address_r": "경상남도 거제시 능포로 136-2",
		"street_score": "0",
		"main_product": "식당",
		"position": {
			"latitude": "34.8757203",
			"longitude": "128.7321130"
		}
	},
	{
		"market_name": "옥수시장",
		"address_j": "경상남도 거제시 능포동 633-215",
		"address_r": "경상남도 거제시 옥수로2길 10",
		"street_score": "19",
		"position": {
			"latitude": "34.8753444",
			"longitude": "128.7308734"
		}
	},
	{
		"market_name": "옥포국제시장",
		"address_j": "경상남도 거제시 옥포동 529-1",
		"address_r": "경상남도 거제시 옥포대첩로3길 8",
		"street_score": "5",
		"position": {
			"latitude": "34.8939706",
			"longitude": "128.6892421"
		}
	},
	{
		"market_name": "옥포중앙시장",
		"address_j": "경상남도 거제시 옥포동 529-8",
		"address_r": "경상남도 거제시 옥포로 215",
		"street_score": "0",
		"position": {
			"latitude": "34.8939769",
			"longitude": "128.6905029"
		}
	},
	{
		"market_name": "옥현상가",
		"address_j": "경상남도 거제시 옥포동1293-1",
		"address_r": "경상남도 거제시 옥포로 250 ",
		"street_score": "0",
		"position": {
			"latitude": "34.8969216",
			"longitude": "128.6900696"
		}
	},
	{
		"market_name": "장평종합시장",
		"address_j": "경상남도 장평동 56-1",
		"address_r": "경상남도 거제시장평로37",
		"street_score": "3",
		"position": {
			"latitude": "34.8908617",
			"longitude": "128.6131052"
		}
	},
	{
		"market_name": "한라프라자",
		"address_j": "경상남도 거제시 고현동 961-153",
		"address_r": "경상남도 거제시 거제중앙로 1906(고현동)",
		"street_score": "0",
		"position": {
			"latitude": "34.8882044",
			"longitude": "128.6235604"
		}
	},
	{
		"market_name": "회원프라자",
		"address_j": "경상남도 거제시 고현동961-59",
		"address_r": "경상남도 거제시 고현로11길 18",
		"street_score": "0",
		"position": {
			"latitude": "34.8890527",
			"longitude": "128.6248324"
		}
	},
	{
		"market_name": "거창시장",
		"address_j": "경상남도 거창군 중앙리 154-12",
		"address_r": "경상남도 거창군 거창읍 중앙로 140",
		"street_score": "23",
		"position": {
			"latitude": "35.6868324",
			"longitude": "127.9140345"
		}
	},
	{
		"market_name": "고성공룡시장",
		"address_j": "경상남도 고성군 고성읍 성내리 212-3",
		"address_r": "경상남도 고성군 고성읍 성내로112번길 75-8",
		"street_score": "7",
		"position": {
			"latitude": "34.9726620",
			"longitude": "128.3233803"
		}
	},
	{
		"market_name": "고성시장",
		"address_j": "경상남도 고성군 고성읍 서외리 1-6",
		"address_r": "경상남도 고성군 고성읍 중앙로25번길57",
		"street_score": "99",
		"position": {
			"latitude": "34.9771137",
			"longitude": "128.3237266"
		}
	},
	{
		"market_name": "배둔시장",
		"address_j": "경상남도 고성군 회화면 배둔리 826-2",
		"address_r": "경상남도  고성군 희화면 배둔로31번길 5",
		"street_score": "10",
		"position": {
			"latitude": null,
			"longitude": null
		}
	},
	{
		"market_name": "영오시장",
		"address_j": "경상남도 고성군 영오면 영산리 232-1",
		"address_r": "경상남도 고성군 영오면 영산리 영회로 527-9",
		"street_score": "4",
		"position": {
			"latitude": null,
			"longitude": null
		}
	},
	{
		"market_name": "김해전통시장(김해동상시장)",
		"address_j": "경상남도 김해시 동상동 877-2",
		"address_r": "경상남도 김해시 호계로 517번길 5-13",
		"street_score": "3",
		"position": {
			"latitude": "35.2362378",
			"longitude": "128.8838590"
		}
	},
	{
		"market_name": "삼방시장",
		"address_j": "경상남도 김해시 삼안로 삼방동 665-8",
		"address_r": "경상남도 김해시 삼안로 255번길 안길 6-12",
		"street_score": "0",
		"position": {
			"latitude": "35.2507842",
			"longitude": "128.9096897"
		}
	},
	{
		"market_name": "외동전통시장",
		"address_j": "경상남도 김해시 외동 1254-2",
		"address_r": "경상남도 김해시 내외중앙로 33",
		"street_score": "0",
		"position": {
			"latitude": "35.2329368",
			"longitude": "128.8660068"
		}
	},
	{
		"market_name": "장유전통시장(장유중앙시장)",
		"address_j": "경상남도 김해시 무계동 189-3",
		"address_r": "경상남도  김해시 장유로 287-22",
		"street_score": "40",
		"position": {
			"latitude": "35.2005685",
			"longitude": "128.8148083"
		}
	},
	{
		"market_name": "진례전통시장",
		"address_j": "경상남도 김해시 진례면 송정리 239-3",
		"address_r": "경상남도 김해시 진례면 송현로 6-1",
		"street_score": "28",
		"position": {
			"latitude": "35.2488540",
			"longitude": "128.7489260"
		}
	},
	{
		"market_name": "진영전통시장",
		"address_j": "경상남도 김해시 진영읍 진영리 235-16",
		"address_r": "경상남도 김해시 진영읍 진영로160번길 13-8",
		"street_score": "30",
		"position": {
			"latitude": null,
			"longitude": null
		}
	},
	{
		"market_name": "고현공설시장",
		"address_j": "경상남도 남해군 고현면 대사리 768",
		"address_r": "경상남도 남해군 고현면 탑동로 68-2",
		"street_score": "5",
		"position": {
			"latitude": "34.8970183",
			"longitude": "127.8728267"
		}
	},
	{
		"market_name": "남면공설시장",
		"address_j": "경상남도 남해군 남면 당항리 1381-5",
		"address_r": "경상남도 남해군 남면 남서대로 785-5 ",
		"street_score": "25",
		"position": {
			"latitude": "34.7710792",
			"longitude": "127.8859140"
		}
	},
	{
		"market_name": "남해전통시장",
		"address_j": "경상남도 남해군 남해읍 북변리 246-1",
		"address_r": "경상남도 남해군 남해읍 화전로110",
		"street_score": "49",
		"position": {
			"latitude": "34.8401468",
			"longitude": "127.8944843"
		}
	},
	{
		"market_name": "이동시장(이동공설시장)",
		"address_j": "경상남도  남해군 이동면 무림리",
		"address_r": "경상남도 남해군 이동면 무림로 63번길 9",
		"street_score": "30",
		"position": {
			"latitude": "34.8011403",
			"longitude": "127.9538268"
		}
	},
	{
		"market_name": "내일전통시장",
		"address_j": "경상남도 밀양시 내일동 174-9",
		"address_r": "경상남도 밀양시 상설시장3길 18-6",
		"street_score": "49",
		"position": {
			"latitude": "35.4933363",
			"longitude": "128.7533093"
		}
	},
	{
		"market_name": "무안시장(무안임시시장)",
		"address_j": "경상남도 밀양시 무안면 무안리 814-2",
		"address_r": "경상남도 밀양시 무안면 사명로510-1",
		"street_score": "42",
		"position": {
			"latitude": "35.4701922",
			"longitude": "128.6520428"
		}
	},
	{
		"market_name": "밀양아리랑시장",
		"address_j": "경상남도 밀양시 내일동 583-1",
		"address_r": "경상남도 밀양시 상설시장1길 11",
		"street_score": "0",
		"position": {
			"latitude": "35.4930587",
			"longitude": "128.7525542"
		}
	},
	{
		"market_name": "송백시장",
		"address_j": "경상남도 밀양시 산내면 송백리 1319-13",
		"address_r": "경상남도 밀양시 산내면 산내로 346-1",
		"street_score": "15",
		"position": {
			"latitude": "35.5862996",
			"longitude": "128.8817021"
		}
	},
	{
		"market_name": "송지시장",
		"address_j": "경상남도  밀양시 삼랑진읍 송지리359의15",
		"address_r": "경상남도  밀양시 삼랑진읍 외송3길 8-1",
		"street_score": "30",
		"position": {
			"latitude": "35.3968675",
			"longitude": "128.8371964"
		}
	},
	{
		"market_name": "수산시장",
		"address_j": "경상남도 밀양시 하남읍 수산리815-18",
		"address_r": "경상남도 밀양시 하남읍 시서상가길 5",
		"street_score": "10",
		"position": {
			"latitude": "35.3742257",
			"longitude": "128.7087810"
		}
	},
	{
		"market_name": "곤양종합시장",
		"address_j": "경상남도 사천시 곤양면 남문외리 48-4",
		"address_r": "경상남도 사천시 곤양면 남산로 65",
		"street_score": "99",
		"position": {
			"latitude": "35.0565330",
			"longitude": "127.9633465"
		}
	},
	{
		"market_name": "사천읍시장",
		"address_j": "경상남도 사천시 정의리 393-8",
		"address_r": "경상남도 사천시 사천읍시장1길 16",
		"street_score": "19",
		"position": {
			"latitude": "35.0840592",
			"longitude": "128.0890110"
		}
	},
	{
		"market_name": "삼천포용궁수산시장",
		"address_j": "경상남도 사천시 동동 485-2",
		"address_r": "경상남도 사천시 어시장길64",
		"street_score": "29",
		"position": {
			"latitude": "34.9274349",
			"longitude": "128.0717635"
		}
	},
	{
		"market_name": "삼천포종합시장",
		"address_j": "경상남도 사천시 동금동88-4",
		"address_r": "경상남도 사천시 새시장길 19",
		"street_score": "296",
		"position": {
			"latitude": "34.9321579",
			"longitude": "128.0790958"
		}
	},
	{
		"market_name": "삼천포중앙시장",
		"address_j": "경상남도 사천시 선구동17-4",
		"address_r": "경상남도 사천시 중앙시장2길 37 ",
		"street_score": "0",
		"position": {
			"latitude": "34.9288449",
			"longitude": "128.0766892"
		}
	},
	{
		"market_name": "서포시장",
		"address_j": "경상남도 사천시 서포면 구평리 644-3",
		"address_r": "경상남도 사천시 자구로 473",
		"street_score": "30",
		"position": {
			"latitude": "35.0068532",
			"longitude": "127.9778879"
		}
	},
	{
		"market_name": "완사시장",
		"address_j": "경상남도 사천시 정곡리 842",
		"address_r": "경상남도 사천시 완사2길12",
		"street_score": "109",
		"position": {
			"latitude": "35.1312176",
			"longitude": "127.9763436"
		}
	},
	{
		"market_name": "단계시장",
		"address_j": "경상남도 산청군 신동면 단계리 784",
		"address_r": "경상남도 신등면 신차로 500-3",
		"street_score": "4",
		"position": {
			"latitude": null,
			"longitude": null
		}
	},
	{
		"market_name": "단성시장",
		"address_j": "경상남도 산천군 단성면 성내리 178",
		"address_r": "경상남도 산청군 단성면 목화로 968번길 17",
		"street_score": "16",
		"position": {
			"latitude": "35.2979226",
			"longitude": "127.9580612"
		}
	},
	{
		"market_name": "덕산시장",
		"address_j": "경상남도 산청군 시천면 사리 931-3",
		"address_r": "경상남도 산청군 시천면 남명로 188-5 덕산시장",
		"street_score": "13",
		"position": {
			"latitude": "35.2770330",
			"longitude": "127.8377443"
		}
	},
	{
		"market_name": "산청시장",
		"address_j": "경상남도 산청군 산청읍 산청리 252-2",
		"address_r": "경상남도 산청군 산청읍 중앙로 16-1",
		"street_score": "30",
		"position": {
			"latitude": "35.4153681",
			"longitude": "127.8762754"
		}
	},
	{
		"market_name": "생초시장",
		"address_j": "경상남도 산청군 생초면 어서리 259-14",
		"address_r": "경상남도 산청군 생초로 25-17",
		"street_score": "3",
		"position": {
			"latitude": "35.4924258",
			"longitude": "127.8360230"
		}
	},
	{
		"market_name": "덕계종합상설시장",
		"address_j": "경상남도 양산시 덕계동 754-1",
		"address_r": "경상남도 양산시 덕계2길 7",
		"street_score": "0",
		"position": {
			"latitude": "35.3697508",
			"longitude": "129.1471562"
		}
	},
	{
		"market_name": "서창시장",
		"address_j": "경상남도 양산시 삼호동 524",
		"address_r": "경상남도 양산시 서창서2길 5",
		"street_score": "198",
		"position": {
			"latitude": "35.4163150",
			"longitude": "129.1719223"
		}
	},
	{
		"market_name": "신평시장",
		"address_j": "경상남도 양산시 하북면 순지리 575",
		"address_r": "경상남도 양산시 하북면 신평강변3길 11",
		"street_score": "69",
		"position": {
			"latitude": "35.4906034",
			"longitude": "129.0858627"
		}
	},
	{
		"market_name": "양산남부시장",
		"address_j": "경상남도 양산시 중부동 423-5",
		"address_r": "경상남도 양산시 중앙로 133번지",
		"street_score": "1",
		"position": {
			"latitude": "35.3424455",
			"longitude": "129.0372437"
		}
	},
	{
		"market_name": "양산남부시장상가",
		"address_j": "경상남도 양산시 중부동 407-3",
		"address_r": "경상남도 양산시 장터3길 7",
		"street_score": "10",
		"position": {
			"latitude": "35.3433893",
			"longitude": "129.0370455"
		}
	},
	{
		"market_name": "양산북부시장",
		"address_j": "경상남도 양산시 북부동 148-19",
		"address_r": "경상남도 양산시 중앙로 232",
		"street_score": "0",
		"position": {
			"latitude": "35.3504589",
			"longitude": "129.0411946"
		}
	},
	{
		"market_name": "신반시장",
		"address_j": "경상남도 의령군 부림면 신반리519-3",
		"address_r": "경상남도 의령군 부림면 신번로7길 6-1",
		"street_score": "10",
		"position": {
			"latitude": "35.4676197",
			"longitude": "128.3245700"
		}
	},
	{
		"market_name": "의령시장",
		"address_j": "경상남도 의령군 의령읍 중동리 386-7",
		"address_r": "경상남도 의령군 의령읍 의병로20길 19-2",
		"street_score": "30",
		"position": {
			"latitude": "35.3187420",
			"longitude": "128.2612556"
		}
	},
	{
		"market_name": "금곡시장",
		"address_j": "경상남도 진주시 금곡면 두문리 632",
		"address_r": "경상남도 진주시 금곡면 두문리 월아산로115번길 26",
		"street_score": "8",
		"position": {
			"latitude": null,
			"longitude": null
		}
	},
	{
		"market_name": "대곡시장",
		"address_j": "경상남도 진주시 대곡면 광석리 321-3",
		"address_r": "경상남도 진주시 대곡면 진의로 1091번길",
		"street_score": "15",
		"position": {
			"latitude": null,
			"longitude": null
		}
	},
	{
		"market_name": "동부종합상가",
		"address_j": "경상남도 진주시 상대동193-1",
		"address_r": "경상남도 진주시 대신로299번길 7",
		"street_score": "0",
		"position": {
			"latitude": "35.1870448",
			"longitude": "128.1162095"
		}
	},
	{
		"market_name": "문산시장",
		"address_j": "경상남도 진주시 문산읍 소문리 112-6",
		"address_r": "경상남도 진주시 문산읍 소문길 68",
		"street_score": "8",
		"position": {
			"latitude": "35.1704651",
			"longitude": "128.1691577"
		}
	},
	{
		"market_name": "서부시장",
		"address_j": "경상남도 진주시 봉곡동 31번지",
		"address_r": "경상남도 진주시 촉석로 127",
		"street_score": "1",
		"position": {
			"latitude": "35.1938102",
			"longitude": "128.0762805"
		}
	},
	{
		"market_name": "이현종합상가",
		"address_j": "경상남도 진주시 이현동 21-3",
		"address_r": "경상남도 진주시 신안로 165 ",
		"street_score": "0",
		"position": {
			"latitude": "35.1919913",
			"longitude": "128.0661337"
		}
	},
	{
		"market_name": "일반성상가(일반성시장)",
		"address_j": "경상남도 진주시 일반성면 창촌리 92번지",
		"address_r": "경상남도 진주시 동부로1993번길 27",
		"street_score": "79",
		"position": {
			"latitude": "35.1712244",
			"longitude": "128.2822070"
		}
	},
	{
		"market_name": "자유시장",
		"address_j": "경상남도 진주시 상대동 276-9",
		"address_r": "경상남도 진주시 도동천로95",
		"street_score": "90",
		"position": {
			"latitude": "35.1801682",
			"longitude": "128.1103050"
		}
	},
	{
		"market_name": "진주동성상가",
		"address_j": "경상남도 진주시 강남동 219",
		"address_r": "경상남도 진주시 진주대로 901",
		"street_score": "2",
		"position": {
			"latitude": "35.1810825",
			"longitude": "128.0894558"
		}
	},
	{
		"market_name": "진주장대시장",
		"address_j": "경상남도 진주시 장대동 58-8",
		"address_r": "경상남도 진주시 진양호로 569번길 12",
		"street_score": "20",
		"position": {
			"latitude": "35.1950661",
			"longitude": "128.0872238"
		}
	},
	{
		"market_name": "진주중앙시장",
		"address_j": "경상남도 진주시 대안동 6-11",
		"address_r": "경상남도 진주시 촉석로 202번길4-2",
		"street_score": "233",
		"position": {
			"latitude": "35.1952773",
			"longitude": "128.0839915"
		}
	},
	{
		"market_name": "천전시장",
		"address_j": "경상남도 진주시 칠암동 306-1",
		"address_r": "경상남도 진주시 진주대로 952-1",
		"street_score": "0",
		"position": {
			"latitude": "35.1850857",
			"longitude": "128.0883047"
		}
	},
	{
		"market_name": "평거한보하이타운",
		"address_j": "경상남도 진주시 순환로 평거동 301-1",
		"address_r": "경상남도 진주시 순환로 553번길 7",
		"street_score": "0",
		"position": {
			"latitude": "35.1725476",
			"longitude": "128.0589534"
		}
	},
	{
		"market_name": "남지시장",
		"address_j": "경상남도 창녕군 남지읍 남지리 531",
		"address_r": "경상남도 창녕군 남지읍 본동길4",
		"street_score": "40",
		"position": {
			"latitude": "35.3891160",
			"longitude": "128.4824934"
		}
	},
	{
		"market_name": "영산시장",
		"address_j": "경상남도 창녕군 영산면 성내리 516-4",
		"address_r": "경상남도 창녕군 영산면 신영산로56",
		"street_score": "49",
		"position": {
			"latitude": "35.4570392",
			"longitude": "128.5325983"
		}
	},
	{
		"market_name": "이방정기시장",
		"address_j": "경상남도 창녕군 이방면 거남리 43-5",
		"address_r": "경상남도 창녕군 이방면 이방대학로35-1",
		"street_score": "7",
		"position": {
			"latitude": null,
			"longitude": null
		}
	},
	{
		"market_name": "창녕상설시장",
		"address_j": "경상남도 창녕군 창녕읍 164-38",
		"address_r": "경상남도 창녕군 창녕읍 시장길 66",
		"street_score": "28",
		"position": {
			"latitude": null,
			"longitude": null
		}
	},
	{
		"market_name": "창녕시장",
		"address_j": "경상남도 창녕군 창녕읍 술정리44-1",
		"address_r": "경상남도 창녕군 창녕읍 시장길 100",
		"street_score": "30",
		"position": {
			"latitude": null,
			"longitude": null
		}
	},
	{
		"market_name": "가음정대상가",
		"address_j": "경상남도 창원시 성산구 원이대로 883번지 15-24",
		"address_r": "경상남도 창원시 성산구 원이대로 883번지  15-24",
		"street_score": "1",
		"position": {
			"latitude": null,
			"longitude": null
		}
	},
	{
		"market_name": "가음정시장",
		"address_j": "경상남도 창원시 성산구 가음동 21-20",
		"address_r": "경상남도 창원시 성산구 원이대로863번길24",
		"street_score": "42",
		"position": {
			"latitude": "35.2082479",
			"longitude": "128.6978737"
		}
	},
	{
		"market_name": "경민인터빌상가",
		"address_j": "경상남도 창원시 마산 회원구 양덕북 12가-113",
		"address_r": "경상남도 창원시 마산회원구 양덕북12길 113",
		"street_score": "0",
		"position": {
			"latitude": "35.2319031",
			"longitude": "128.5838190"
		}
	},
	{
		"market_name": "경창상가",
		"address_j": "경상남도 창원시 성산구 상남동 73-5",
		"address_r": "경상남도 창원시 성산구 상남로 67",
		"street_score": "0",
		"position": {
			"latitude": "35.2201651",
			"longitude": "128.6793261"
		}
	},
	{
		"market_name": "경화시장",
		"address_j": "경상남도 창원시 진해구 경화동 906",
		"address_r": "경상남도 창원시 진해구 경화로 38번길",
		"street_score": "336",
		"position": {
			"latitude": null,
			"longitude": null
		}
	},
	{
		"market_name": "구암시장",
		"address_j": "경상남도 창원시 마산 회원구 구암동 87",
		"address_r": "경상남도 창원시 마산 회원구 구암남 14길 8",
		"street_score": "0",
		"position": {
			"latitude": "35.2495390",
			"longitude": "128.5996435"
		}
	},
	{
		"market_name": "구암현대시장",
		"address_j": "경상남도 창원시 마산회원구 구암1동 18-2",
		"address_r": "경상남도 창원시 마산회원구 구암서5길 15 ",
		"street_score": "0",
		"position": {
			"latitude": "35.2481679",
			"longitude": "128.5908000"
		}
	},
	{
		"market_name": "기산프라자",
		"address_j": "경상남도 창원시 오동동 18-61",
		"address_r": "경상남도 창원시 오동동14길 29",
		"street_score": "0",
		"position": {
			"latitude": "35.2052918",
			"longitude": "128.5808095"
		}
	},
	{
		"market_name": "대동그린코아상가",
		"address_j": "경상남도  창원시 반지동 23",
		"address_r": "경상남도  창원시 창원천로 292",
		"street_score": "0",
		"position": {
			"latitude": "35.2449389",
			"longitude": "128.6703923"
		}
	},
	{
		"market_name": "대동씨코아상가시장",
		"address_j": "경상남도 창원시 마산합포구 해운동 37-4",
		"address_r": "경상남도 창원시 마산합포구 월영동로8",
		"street_score": "0",
		"position": {
			"latitude": "35.1797591",
			"longitude": "128.5624755"
		}
	},
	{
		"market_name": "대동중앙상가",
		"address_j": "경상남도 창원시 의창구 팔용동124-4",
		"address_r": "경상남도 창원시 의창구 반계로 93 ",
		"street_score": "0",
		"position": {
			"latitude": "35.2536092",
			"longitude": "128.6158367"
		}
	},
	{
		"market_name": "대동훼미리코아상가",
		"address_j": "경상남도 창원시 성산구 대방동 358",
		"address_r": "경상남도 창원시 성산구 대정로 138",
		"street_score": "6",
		"position": {
			"latitude": "35.2117490",
			"longitude": "128.7076298"
		}
	},
	{
		"market_name": "대방덕산1차상가",
		"address_j": "경상남도 창원시 성산구 대방동 356",
		"address_r": "경상남도 창원시 성산구 대정로 131",
		"street_score": "7",
		"position": {
			"latitude": "35.2127158",
			"longitude": "128.7068290"
		}
	},
	{
		"market_name": "덕산그린피아상가",
		"address_j": "경상남도 창원시 성산구 중앙동 98-6",
		"address_r": "경상남도 창원시 성산구 용지로 64",
		"street_score": "0",
		"position": {
			"latitude": "35.2216809",
			"longitude": "128.6760246"
		}
	},
	{
		"market_name": "동마산시장",
		"address_j": "경상남도 창원시 마산 회원구 합성동 326-1",
		"address_r": "경상남도 창원시 마산 회원구 합성남8길 76",
		"street_score": "0",
		"position": {
			"latitude": "35.2400366",
			"longitude": "128.5875448"
		}
	},
	{
		"market_name": "동성올림픽타운",
		"address_j": "경상남도 창원시 성상구 중앙동 97-2",
		"address_r": "경상남도 창원시 성상구 중앙대로 77",
		"street_score": "0",
		"position": {
			"latitude": null,
			"longitude": null
		}
	},
	{
		"market_name": "롯데종합상가",
		"address_j": "경상남도 창원시 의창구 용호동 63",
		"address_r": "경상남도 창원시 의창구 용지로225",
		"street_score": "0",
		"position": {
			"latitude": "35.2340375",
			"longitude": "128.6854321"
		}
	},
	{
		"market_name": "마산수산시장",
		"address_j": "경상남도 창원시 마산합포구 남성동 229-1",
		"address_r": "경상남도 창원시 마산합포구 수산2길 194",
		"street_score": "9",
		"position": {
			"latitude": "35.2018167",
			"longitude": "128.5789097"
		}
	},
	{
		"market_name": "마산어시장",
		"address_j": "경상남도 창원시 마산합포구 동성동 314",
		"address_r": "경상남도 창원시 마산합포구 복요리로 7",
		"street_score": "93",
		"main_product": "아귀  전어",
		"position": {
			"latitude": "35.2037617",
			"longitude": "128.5789560"
		}
	},
	{
		"market_name": "마산역번개시장",
		"address_j": "경상남도 창원시 마산회원구 석전1동 43",
		"address_r": "경상남도 창원시 마산회원구 석전동 16길",
		"street_score": "22",
		"position": {
			"latitude": null,
			"longitude": null
		}
	},
	{
		"market_name": "마천시장",
		"address_j": "경상남도 창원시 진해구 마천동 131-22",
		"address_r": "경상남도 창원시 진해구 웅동로 57",
		"street_score": "10",
		"position": {
			"latitude": "35.1253878",
			"longitude": "128.7828096"
		}
	},
	{
		"market_name": "명곡종합상가",
		"address_j": "경상남도 창원시 의창구 명서동 75-16",
		"address_r": "경상남도 창원시 의창구 명서로116번길 20 ",
		"street_score": "14",
		"position": {
			"latitude": "35.2484874",
			"longitude": "128.6462193"
		}
	},
	{
		"market_name": "명서시장",
		"address_j": "경상남도 창원시 명서동 45-10",
		"address_r": "경상남도 창원시 의창구 원이대로 189번길 20",
		"street_score": "0",
		"position": {
			"latitude": "35.2486082",
			"longitude": "128.6447626"
		}
	},
	{
		"market_name": "반송시장",
		"address_j": "경상남도 창원시 성산구 반림동 17-13",
		"address_r": "경상남도 창원시 성산구 윈이대로 473번길 20-11",
		"street_score": "40",
		"main_product": "칼국수 음식점",
		"position": {
			"latitude": null,
			"longitude": null
		}
	},
	{
		"market_name": "봉곡시장",
		"address_j": "경상남도 창원시 의창구 봉곡동145-1",
		"address_r": "경상남도 창원시 의창구 봉곡로111번길 16",
		"street_score": "6",
		"position": {
			"latitude": "35.2469696",
			"longitude": "128.6719714"
		}
	},
	{
		"market_name": "봉곡프라자상가",
		"address_j": "경상남도 창원시 의창구 봉곡동61-10",
		"address_r": "경상남도 창원시 의창구 창이대로205번길 5",
		"street_score": "0",
		"position": {
			"latitude": "35.2454396",
			"longitude": "128.6595184"
		}
	},
	{
		"market_name": "부림상시장",
		"address_j": "경상남도 창원시 마산합포구 부림동 83-24",
		"address_r": "경상남도 창원시 마산합포구 동서서4길 2-15",
		"street_score": "0",
		"position": {
			"latitude": "35.2057888",
			"longitude": "128.5724559"
		}
	},
	{
		"market_name": "부림시장",
		"address_j": "경상남도 창원시 마산합포구 부림동 32",
		"address_r": "경상남도 창원시 마산함포구 3·15대로 352 ",
		"street_score": "7",
		"position": {
			"latitude": null,
			"longitude": null
		}
	},
	{
		"market_name": "북동공설시장",
		"address_j": "경상남도 창원시 의창우 북동 249-1",
		"address_r": "경상남도 창원시 의창구 의안로 49번길 30",
		"street_score": "0",
		"position": {
			"latitude": "35.2661806",
			"longitude": "128.6206956"
		}
	},
	{
		"market_name": "북마산가구시장",
		"address_j": "경상남도 창원시 마산합포구 추산동 7-6",
		"address_r": "경상남도 창원시 마산합포구 북성로 17",
		"street_score": "0",
		"main_product": "가구",
		"position": {
			"latitude": "35.2089850",
			"longitude": "128.5727630"
		}
	},
	{
		"market_name": "북마산중앙시장",
		"address_j": "경상남도 창원시 마산합포구 상남동 40-1",
		"address_r": "경상남도 창원시 마산합포구 상남시장로3",
		"street_score": "0",
		"position": {
			"latitude": "35.2160354",
			"longitude": "128.5711735"
		}
	},
	{
		"market_name": "사파동성종합상가",
		"address_j": "경상남도 창원시 성산구 사파동 93",
		"address_r": "경상남도 창원시 성산구 창이대로 733",
		"street_score": "0",
		"position": {
			"latitude": "35.2197552",
			"longitude": "128.7020819"
		}
	},
	{
		"market_name": "산호시장",
		"address_j": "경상남도 창원시 마산합포구 산호동 28-8",
		"address_r": "경상남도 창원시 마산합포구 산호시장길 18",
		"street_score": "1",
		"position": {
			"latitude": "35.2183736",
			"longitude": "128.5817160"
		}
	},
	{
		"market_name": "상남시장",
		"address_j": "경상남도 창원시 성산구 상남동 16",
		"address_r": "경상남도 창원시 성산구 마디미로28",
		"street_score": "200",
		"position": {
			"latitude": "35.2222149",
			"longitude": "128.6833799"
		}
	},
	{
		"market_name": "서마산시장",
		"address_j": "경상남도 창원시 마산회원구 석전동 155-1",
		"address_r": "경상남도 창원시 마산회원구 석전남16길64",
		"street_score": "4",
		"position": {
			"latitude": "35.2290203",
			"longitude": "128.5691291"
		}
	},
	{
		"market_name": "석전시장",
		"address_j": "경상남도 창원시 마산회원구 석전동 257-1",
		"address_r": "경상남도 창원시 마산회원구 석전동 6길 32",
		"street_score": "7",
		"position": {
			"latitude": "35.2304113",
			"longitude": "128.5749056"
		}
	},
	{
		"market_name": "성원3차상가",
		"address_j": "경상남도 창원시 성산구 대방동 355",
		"address_r": "경상남도 창원시 성산구 대암로80",
		"street_score": "0",
		"position": {
			"latitude": "35.2150000",
			"longitude": "128.7052998"
		}
	},
	{
		"market_name": "성원그랜드쇼핑상가",
		"address_j": "경상남도 창원시 성산구 상남동 45-1",
		"address_r": "경상남도 창원시 성산구 동산로 124",
		"street_score": "0",
		"main_product": "떡 튀김",
		"position": {
			"latitude": "35.2193593",
			"longitude": "128.6915333"
		}
	},
	{
		"market_name": "소계시장",
		"address_j": "경상남도 창원시 의창구 소계동83-6",
		"address_r": "경상남도 창원시 의창구 소계로 83-6",
		"street_score": "0",
		"position": {
			"latitude": "35.2567588",
			"longitude": "128.5989656"
		}
	},
	{
		"market_name": "소계옛길시장",
		"address_j": "경상남도 창원시 의창구 소계동 723-15",
		"address_r": "경상남도 창원시 의창구 소계로 99-4",
		"street_score": "3",
		"position": {
			"latitude": "35.2579135",
			"longitude": "128.5982672"
		}
	},
	{
		"market_name": "소답시장",
		"address_j": "경상남도 창원시 의창구 북동 246_6",
		"address_r": "경상남도 창원시 의창구 의안로49번길 31-7 ",
		"street_score": "30",
		"position": {
			"latitude": "35.2657462",
			"longitude": "128.6207603"
		}
	},
	{
		"market_name": "신마산반월시장(반월시장)",
		"address_j": "경상남도 창원시 마산합포구 반월동 84-13",
		"address_r": "경상남도 창원시 마산합포구 반월남1길 18-16",
		"street_score": "3",
		"position": {
			"latitude": "35.1896594",
			"longitude": "128.5611826"
		}
	},
	{
		"market_name": "신마산시장",
		"address_j": "경상남도 창원시 마산합포구 해운동 64",
		"address_r": "경상남도 창원시 마산합포구 문화동15길 13",
		"street_score": "3",
		"position": {
			"latitude": "35.1811026",
			"longitude": "128.5616975"
		}
	},
	{
		"market_name": "양곡종합상가",
		"address_j": "경상남도 창원시 성산구 신촌동 33-2",
		"address_r": "경상남도 창원시 성산구 신촌로102",
		"street_score": "0",
		"position": {
			"latitude": "35.1999694",
			"longitude": "128.6285554"
		}
	},
	{
		"market_name": "양덕중앙시장",
		"address_j": "경상남도 창원시 회원구 양덕동 15-1",
		"address_r": "경상남도 창원시 회원구 양덕북10길 23 ",
		"street_score": "0",
		"position": {
			"latitude": null,
			"longitude": null
		}
	},
	{
		"market_name": "역전통합시장",
		"address_j": "경상남도 창원시 회원구 석천2동 226-2",
		"address_r": "경상남도 창운시 회원구 석전동15길 23",
		"street_score": "0",
		"position": {
			"latitude": null,
			"longitude": null
		}
	},
	{
		"market_name": "웅천시장",
		"address_j": "경상남도 창원시 진해구 성내동 327",
		"address_r": "경상남도 창원시 진해구 웅천중로56번길 8",
		"street_score": "16",
		"position": {
			"latitude": "35.1110191",
			"longitude": "128.7509026"
		}
	},
	{
		"market_name": "월영대시장",
		"address_j": "경상남도 창원시 마산합포구 해운동14-15",
		"address_r": "경상남도 창원시 마산합포구 월영남1길 13",
		"street_score": "0",
		"position": {
			"latitude": "35.1792750",
			"longitude": "128.5577604"
		}
	},
	{
		"market_name": "유신종합상가",
		"address_j": "경상남도 창원시 성산구 신촌동 15-6",
		"address_r": "경상남도 창원시 성산구 신촌로 21",
		"street_score": "1",
		"main_product": "음식점",
		"position": {
			"latitude": "35.2075615",
			"longitude": "128.6267806"
		}
	},
	{
		"market_name": "정우새어시장",
		"address_j": "경상남도 창원시 마산합포구 동성동 313",
		"address_r": "경상남도 창원시 마산합포구 어시장7길126",
		"street_score": "0",
		"position": {
			"latitude": "35.2041040",
			"longitude": "128.5787114"
		}
	},
	{
		"market_name": "중앙시장(창원중앙시장)",
		"address_j": "경상남도 창원시 성산구 중앙동 8-10",
		"address_r": "경상남도 창원시 성산구 외동반림로 126길50",
		"street_score": "0",
		"position": {
			"latitude": "35.2301712",
			"longitude": "128.6719385"
		}
	},
	{
		"market_name": "지귀시장",
		"address_j": "경상남도 창원시 의창구 봉곡동 80-14",
		"address_r": "경상남도 창원시 의창구 창이대로 205번길8-3",
		"street_score": "0",
		"position": {
			"latitude": "35.2458139",
			"longitude": "128.6598569"
		}
	},
	{
		"market_name": "진동시장",
		"address_j": "경상남도 창원시 마산합포구 진동면 진동리237-11",
		"address_r": "경상남도 창원시 마산합포구 진동시장길 43-7",
		"street_score": "1",
		"position": {
			"latitude": "35.1135930",
			"longitude": "128.4879258"
		}
	},
	{
		"market_name": "진동전통시장",
		"address_j": "경상남도 창원시 마산합포구 진동면 진동리264-3",
		"address_r": "경상남도 창원시 마산합포구 진동면 진동시장길 62",
		"street_score": "20",
		"position": {
			"latitude": "35.1133041",
			"longitude": "128.4873148"
		}
	},
	{
		"market_name": "진해중부시장",
		"address_j": "경상남도 창원시 진해구 경화동 1164-1",
		"address_r": "경상남도 창원시 진해구 중초로 20 ",
		"street_score": "0",
		"position": {
			"latitude": "35.1548227",
			"longitude": "128.6817644"
		}
	},
	{
		"market_name": "진해중앙시장",
		"address_j": "경상남도 창원시 진해구 벚꽃로 화천동 60-14",
		"address_r": "경상남도 창원시 진해구 벚꽃로 60번길 19-4",
		"street_score": "47",
		"position": {
			"latitude": "35.1510823",
			"longitude": "128.6652503"
		}
	},
	{
		"market_name": "창원기계공구상가",
		"address_j": "경상남도 창원시 팔용동 16-1",
		"address_r": "경상남도 창원시 의창구 창원대로 400",
		"street_score": "0",
		"position": {
			"latitude": "35.2337675",
			"longitude": "128.6410782"
		}
	},
	{
		"market_name": "창원도계부부시장",
		"address_j": "경상남도 창원시 의창구 도계동 400-1",
		"address_r": "경상남도 창원시 의창구 원이대로 69번길 20",
		"street_score": "15",
		"position": {
			"latitude": "35.2572217",
			"longitude": "128.6371523"
		}
	},
	{
		"market_name": "창원캔버라상가",
		"address_j": "경상남도 창원시 성산구 중앙동97-6",
		"address_r": "경상남도 창원시 성산구 중앙대로61번길 4",
		"street_score": "0",
		"position": {
			"latitude": "35.2212408",
			"longitude": "128.6768347"
		}
	},
	{
		"market_name": "창원코아상가",
		"address_j": "경상남도 창원시 성산구 상남동 73-4",
		"address_r": "경상남도 창원시 성산구 상남로 71",
		"street_score": "0",
		"position": {
			"latitude": "35.2204425",
			"longitude": "128.6795415"
		}
	},
	{
		"market_name": "코오롱타운상가",
		"address_j": "경상남도 창원시 회원구 내서읍 호계리 10",
		"address_r": "경상남도 창원시 회원구 내서읍 호원로361-2",
		"street_score": "0",
		"position": {
			"latitude": null,
			"longitude": null
		}
	},
	{
		"market_name": "토월복합상가시장",
		"address_j": "경상남도  창원시 의창구 실월동68-1",
		"address_r": "경상남도  창원시 의창구 신월로 42 ",
		"street_score": "0",
		"position": {
			"latitude": "35.2280369",
			"longitude": "128.6919388"
		}
	},
	{
		"market_name": "합성동상가",
		"address_j": "경상남도 창원시 회원구 합성동 125-3",
		"address_r": "경상남도 창원시 회원구 합성옛길136",
		"street_score": "0",
		"position": {
			"latitude": null,
			"longitude": null
		}
	},
	{
		"market_name": "합성옛길시장",
		"address_j": "경상남도 창원시 마산 회원구 합성동 732-7",
		"address_r": "경상남도 창원시 마산 회원구 합성옛길 77",
		"street_score": "0",
		"position": {
			"latitude": "35.2353421",
			"longitude": "128.5820117"
		}
	},
	{
		"market_name": "회성종합시장",
		"address_j": "경상남도 창원시 마산회원구 회성동 450-2",
		"address_r": "경상남도 창원시 마산 회원구 회성동 시장1길 16",
		"street_score": "0",
		"position": {
			"latitude": null,
			"longitude": null
		}
	},
	{
		"market_name": "합성대로상가",
		"address_j": "경상남도 창원시 회원구 합성동 85-8",
		"address_r": "경상남도 창원시 회원구 3·15대로 747의1",
		"street_score": "0",
		"position": {
			"latitude": null,
			"longitude": null
		}
	},
	{
		"market_name": "북신시장",
		"address_j": "경상남도 통영시 북신동 665-16",
		"address_r": "경상남도  통영시 북신시장1길 66",
		"street_score": "19",
		"position": {
			"latitude": "34.8541552",
			"longitude": "128.4275309"
		}
	},
	{
		"market_name": "서호시장",
		"address_j": "경상남도 통영시 서호동 163-42",
		"address_r": "경상남도 통영시 새터길 58-9",
		"street_score": "126",
		"position": {
			"latitude": "34.8414618",
			"longitude": "128.4201161"
		}
	},
	{
		"market_name": "통영중앙전통시장",
		"address_j": "경상남도 통영시 중앙동 38-4",
		"address_r": "경상남도 통영시 중앙시장1길14-16",
		"street_score": "46",
		"position": {
			"latitude": "34.8452927",
			"longitude": "128.4246138"
		}
	},
	{
		"market_name": "계천공설시장(계천시장)",
		"address_j": "경상남도 하동군 금남면 계천리 355-3",
		"address_r": "경상남도 하동군 금남면 섬진강대로 977-17",
		"street_score": "49",
		"position": {
			"latitude": "34.9959881",
			"longitude": "127.8094996"
		}
	},
	{
		"market_name": "북천공설시장",
		"address_j": "경상남도 하동군 북천면 직전리 597-1",
		"address_r": "경상남도 하동군 경서대로 2427-14",
		"street_score": "4",
		"position": {
			"latitude": "35.1135926",
			"longitude": "127.8918174"
		}
	},
	{
		"market_name": "옥종공설시장",
		"address_j": "경상남도 하동군 옥종면 청룡리",
		"address_r": "경상남도 하동군 옥종면 옥종사장길 5",
		"street_score": "35",
		"position": {
			"latitude": null,
			"longitude": null
		}
	},
	{
		"market_name": "진교공설시장",
		"address_j": "경상남도 하동군 진교면 진교리302-4",
		"address_r": "경상남도 하동군 진교면 선창길 24",
		"street_score": "20",
		"position": {
			"latitude": "35.0271737",
			"longitude": "127.9038160"
		}
	},
	{
		"market_name": "하동공설시장",
		"address_j": "경상남도 하동군 하동읍 읍내리 258-1",
		"address_r": "경상남도 하동군 하동읍 시장 1길 12-2",
		"street_score": "69",
		"main_product": "대봉감  매실",
		"position": {
			"latitude": "35.0698084",
			"longitude": "127.7483809"
		}
	},
	{
		"market_name": "화개장터",
		"address_j": "경상남도 하동군 화개면 탑리 726-10",
		"address_r": "경상남도 하동군 화개면 쌍계로 21",
		"street_score": "10",
		"main_product": "약초",
		"position": {
			"latitude": "35.1886236",
			"longitude": "127.6242244"
		}
	},
	{
		"market_name": "횡천공설시장(횡천시장)",
		"address_j": "경상남도 하동군 횡천면 횡천리 507-2",
		"address_r": "경상남도 하동군 횡천면 문화2길 24",
		"street_score": "10",
		"position": {
			"latitude": "35.1092123",
			"longitude": "127.8107004"
		}
	},
	{
		"market_name": "가야상설시장(가야시장)",
		"address_j": "경상남도 함안군 가야읍 말산리 470-1",
		"address_r": "경상남도 함안군 가야읍 가야8길8",
		"street_score": "30",
		"position": {
			"latitude": "35.2772607",
			"longitude": "128.4064642"
		}
	},
	{
		"market_name": "군복공설시장",
		"address_j": "경상남도 함안군 군북면 중암리83-16",
		"address_r": "경상남도 함안군 군북면 중암8길 27",
		"street_score": "10",
		"position": {
			"latitude": "35.2610591",
			"longitude": "128.3469492"
		}
	},
	{
		"market_name": "대산공설시장",
		"address_j": "경상남도 함안군 대산면 구혜리221-3",
		"address_r": "경상남도 함안군 대산면 대산중앙로 219 ",
		"street_score": "20",
		"position": {
			"latitude": "35.3528369",
			"longitude": "128.4281293"
		}
	},
	{
		"market_name": "칠원공설시장",
		"address_j": "경상남도 함안군 칠원면 구성리 734-7",
		"address_r": "경상남도 함안군 칠원면 서남3길14",
		"street_score": "20",
		"position": {
			"latitude": "35.3056523",
			"longitude": "128.5195188"
		}
	},
	{
		"market_name": "마천전통시장",
		"address_j": "경상남도 함양군 마천면 가흥리 609-2",
		"address_r": "경상남도 함양군 마천면 천왕봉로 1144-2",
		"street_score": "12",
		"position": {
			"latitude": "35.3956691",
			"longitude": "127.6626900"
		}
	},
	{
		"market_name": "안의시장",
		"address_j": "경상남도 함양군 안의면 석천리 243",
		"address_r": "경상남도 함양군 안의면 약초시장길 25-10 ",
		"street_score": "12",
		"position": {
			"latitude": "35.6262982",
			"longitude": "127.8140339"
		}
	},
	{
		"market_name": "지리산함양시장",
		"address_j": "경상남도 함양군 함양읍 용평리 607-104",
		"address_r": "경상남도 함양군 함양읍 용평 중앙길 20",
		"street_score": "30",
		"main_product": "농산물",
		"position": {
			"latitude": "35.5186005",
			"longitude": "127.7289880"
		}
	},
	{
		"market_name": "함양토종약초시장",
		"address_j": "경상남도 함양군 안의면 이전리 15",
		"address_r": "경상남도 함양군 안의면 약초시장길 27",
		"street_score": "0",
		"position": {
			"latitude": "35.6259660",
			"longitude": "127.8137152"
		}
	},
	{
		"market_name": "가야시장",
		"address_j": "경상남도 합천군 가야면 황산리 17-1",
		"address_r": "경상남도 합천군 가야면 가야시장로 63-15",
		"street_score": "20",
		"position": {
			"latitude": "35.7602455",
			"longitude": "128.1383666"
		}
	},
	{
		"market_name": "삼가시장",
		"address_j": "경상남도 합천군 삼가면 일부리 921-1",
		"address_r": "경상남도 합천군 삼가면 일부5길 1",
		"street_score": "26",
		"position": {
			"latitude": "35.4128146",
			"longitude": "128.1222832"
		}
	},
	{
		"market_name": "야로시장",
		"address_j": "경상남도 합천군 야로면 구정리 273-4",
		"address_r": "경상남도 합천군 야로면 야로시장길 7-5",
		"street_score": "16",
		"position": {
			"latitude": null,
			"longitude": null
		}
	},
	{
		"market_name": "초계시장",
		"address_j": "경상남도 합천군 초계리 50-1",
		"address_r": "경상남도 합천군 초계중앙로 61",
		"street_score": "23",
		"position": {
			"latitude": "35.5593149",
			"longitude": "128.2668348"
		}
	},
	{
		"market_name": "합천시장",
		"address_j": "경상남도 합첩군 합천읍 합천리473-1",
		"address_r": "경상남도 합첩군 합천읍 옥산로 53",
		"street_score": "62",
		"position": {
			"latitude": null,
			"longitude": null
		}
	},
	{
		"market_name": "경산공설시장",
		"address_j": "경상북도 경산시 서상동 10",
		"address_r": "경상북도 경산시 경안로31길 19",
		"street_score": "15",
		"main_product": "청과",
		"position": {
			"latitude": "35.8205186",
			"longitude": "128.7357579"
		}
	},
	{
		"market_name": "자인공설시장",
		"address_j": "경상북도 경산시 자인면 서부리 254",
		"address_r": "경상북도 경산시 자인면 자인로 206-4",
		"street_score": "99",
		"main_product": "갈치 돔배기",
		"position": {
			"latitude": "35.8164787",
			"longitude": "128.8229715"
		}
	},
	{
		"market_name": "하양공설시장",
		"address_j": "경상북도 경산시 하양읍 금락리 35-6",
		"address_r": "경상북도 경산시 하양읍 대학로 1543",
		"street_score": "40",
		"main_product": "반찬  음식  선어  정육  의류  잡화 등",
		"position": {
			"latitude": "35.9156043",
			"longitude": "128.8192638"
		}
	},
	{
		"market_name": "감포시장",
		"address_j": "경상북도 경주시 감포리 436-1",
		"address_r": "경상북도 경주시 감포로115",
		"street_score": "30",
		"position": {
			"latitude": "35.8041102",
			"longitude": "129.5020146"
		}
	},
	{
		"market_name": "경주성동공설시장",
		"address_j": "경상북도 경주시 구황동 843-6",
		"address_r": "경상북도 경주시 원효로 281번길1",
		"street_score": "0",
		"position": {
			"latitude": "35.8408610",
			"longitude": "129.2318995"
		}
	},
	{
		"market_name": "경주중심상가시장",
		"address_j": "경상북도 경주시 황오동 234-1",
		"address_r": "경상북도 경주시 태종로 791번길16",
		"street_score": "0",
		"position": {
			"latitude": "35.8422607",
			"longitude": "129.2146869"
		}
	},
	{
		"market_name": "경주중앙시장",
		"address_j": "경상북도 경주시 성건동 339-2",
		"address_r": "경상북도 경주시 금성로 295",
		"street_score": "198",
		"main_product": "떡 토종한우 소머리곰탕",
		"position": {
			"latitude": "35.8439605",
			"longitude": "129.2067453"
		}
	},
	{
		"market_name": "북부상가시장",
		"address_j": "경상북도 경주시 성건동 629-10",
		"address_r": "경상북도 경주시 금성로 396번길 7",
		"street_score": "40",
		"position": {
			"latitude": "35.8534930",
			"longitude": "129.2075800"
		}
	},
	{
		"market_name": "북정로중심상가시장",
		"address_j": "경상북도 경주시 황오동 242-4",
		"address_r": "경상북도 경주시 북정로 15",
		"street_score": "0",
		"position": {
			"latitude": "35.8422922",
			"longitude": "129.2151772"
		}
	},
	{
		"market_name": "불국사상가시장",
		"address_j": "경상북도 경주시 진현동 66-5",
		"address_r": "경상북도 경주시 진현로1길 59-5",
		"street_score": "0",
		"position": {
			"latitude": "35.7859962",
			"longitude": "129.3278529"
		}
	},
	{
		"market_name": "불국시장",
		"address_j": "경상북도 경주시 구정동 429-7",
		"address_r": "경상북도 경주시 불국로 장터길 24",
		"street_score": "178",
		"position": {
			"latitude": null,
			"longitude": null
		}
	},
	{
		"market_name": "산내시장",
		"address_j": "경상북도 경주시 산내면 의곡리 155-10",
		"address_r": "경상북도 경주시 산내면 의곡중앙길 27",
		"street_score": "69",
		"position": {
			"latitude": "35.7578197",
			"longitude": "129.0464666"
		}
	},
	{
		"market_name": "서면시장",
		"address_j": "경상북도 경주시 서면 아화리 240-2",
		"address_r": "경상북도 경주시 서면 내서로 401-5",
		"street_score": "10",
		"position": {
			"latitude": "35.8950633",
			"longitude": "129.0480430"
		}
	},
	{
		"market_name": "안강공설시장",
		"address_j": "경상북도 경주시 안강읍 양월리 1350-1",
		"address_r": "경상북도 경주시 안강읍 비화중로 3길 26-3",
		"street_score": "148",
		"main_product": "참기름",
		"position": {
			"latitude": "35.9903076",
			"longitude": "129.2217104"
		}
	},
	{
		"market_name": "양남시장",
		"address_j": "경상북도 경주시 하서리 1502",
		"address_r": "경상북도 경주시 해변공원길 73",
		"street_score": "119",
		"position": {
			"latitude": "35.6752102",
			"longitude": "129.4638460"
		}
	},
	{
		"market_name": "양북시장",
		"address_j": "경상북도 경주시 양북면 어일리 1295-556",
		"address_r": "경상북도 경주시 양북면 감은로 58-30",
		"street_score": "148",
		"position": {
			"latitude": null,
			"longitude": null
		}
	},
	{
		"market_name": "외동시장",
		"address_j": "경상북도 경주시 외동읍 입실리 1018-7",
		"address_r": "경상북도 경주시 외동읍 입실시장길 8-6",
		"street_score": "148",
		"position": {
			"latitude": "35.7146001",
			"longitude": "129.3257077"
		}
	},
	{
		"market_name": "제2경주중심상가시장",
		"address_j": "경상북도 경주시 노동동 230",
		"address_r": "경상북도 경주시 원효로 89",
		"street_score": "100",
		"main_product": "옷 음식업 잡화",
		"position": {
			"latitude": "35.8422211",
			"longitude": "129.2106411"
		}
	},
	{
		"market_name": "건천시장",
		"address_j": "경상북도 경주시 건천읍 건천리 339-4",
		"address_r": "경상북도 경주시 건천읍 내서로 1131-1",
		"street_score": "0",
		"position": {
			"latitude": "35.8483010",
			"longitude": "129.1048107"
		}
	},
	{
		"market_name": "고령대가야시장",
		"address_j": "경상북도 고령군 대가야읍 지산리 222-2",
		"address_r": "경상북도 고령군 대가야읍 시장3길29",
		"street_score": "47",
		"main_product": "건어물 양곡 수산 소구레",
		"position": {
			"latitude": "35.7273204",
			"longitude": "128.2667582"
		}
	},
	{
		"market_name": "구미공단종합시장",
		"address_j": "경상북도 구미시 공단동 107",
		"address_r": "경상북도 구미시 수출대로3길107",
		"street_score": "2",
		"position": {
			"latitude": "36.1206364",
			"longitude": "128.3715356"
		}
	},
	{
		"market_name": "구미산업유통단지",
		"address_j": "경상북도 구미시 임수동 92-9",
		"address_r": "경상북도 구미시 3공단1로 302-7",
		"street_score": "0",
		"main_product": "각종공구",
		"position": {
			"latitude": "36.1095461",
			"longitude": "128.4029133"
		}
	},
	{
		"market_name": "구미새마을중앙시장",
		"address_j": "경상북도 구미시 원평동",
		"address_r": "경상북도 구미시 중앙로9길 11",
		"street_score": "102",
		"position": {
			"latitude": null,
			"longitude": null
		}
	},
	{
		"market_name": "구미종합상가",
		"address_j": "경상북도 구미시 원평동 119-15",
		"address_r": "경상북도 구미시 구미중앙로9길 7",
		"street_score": "14",
		"main_product": "족발 잔치국수 수산물 한복 양품(옷)",
		"position": {
			"latitude": "36.1303161",
			"longitude": "128.3296488"
		}
	},
	{
		"market_name": "구미파크시장",
		"address_j": "경상북도 구미시 중동로 162",
		"address_r": "경상북도 구미시 도량동 77",
		"street_score": "0",
		"position": {
			"latitude": "36.1475097",
			"longitude": "128.3243707"
		}
	},
	{
		"market_name": "금오시장",
		"address_j": "경상북도 구미시 원평동 1028-2",
		"address_r": "경상북도 구미시 금오시장로13",
		"street_score": "0",
		"position": {
			"latitude": "36.1261119",
			"longitude": "128.3406025"
		}
	},
	{
		"market_name": "선산봉황시장",
		"address_j": "경상북도 구미시 선산읍 완전리 253",
		"address_r": "경상북도 구미시 선산읍 단계동길 24",
		"street_score": "593",
		"main_product": "곱창",
		"position": {
			"latitude": "36.2395196",
			"longitude": "128.3009112"
		}
	},
	{
		"market_name": "신평전통시장",
		"address_j": "경상북도 구미시 신평동 150-4",
		"address_r": "경상북도 구미시 칠성로6길 48",
		"street_score": "0",
		"main_product": "돼지국밥 반찬 국수",
		"position": {
			"latitude": "36.1231590",
			"longitude": "128.3611466"
		}
	},
	{
		"market_name": "인동시장",
		"address_j": "경상북도 구미시 황상동 307-7",
		"address_r": "경상북도 구미시 인동중앙로5길 16-3",
		"street_score": "20",
		"position": {
			"latitude": "36.1081977",
			"longitude": "128.4209299"
		}
	},
	{
		"market_name": "장천시장",
		"address_j": "경상북도 구미시 장천면 상장리 918",
		"address_r": "경상북도 구미시 장천면 상장5길 4",
		"street_score": "38",
		"main_product": "소고기  고추",
		"position": {
			"latitude": "36.1256992",
			"longitude": "128.4934089"
		}
	},
	{
		"market_name": "제일시장상가",
		"address_j": "경상북도 구미시 공단동 264-18",
		"address_r": "경상북도 구미시 1공단로 192",
		"street_score": "0",
		"main_product": "돼지국밥",
		"position": {
			"latitude": "36.1017328",
			"longitude": "128.3841108"
		}
	},
	{
		"market_name": "종합제일시장",
		"address_j": "경상북도 구미시 원평동 118-31",
		"address_r": "경상북도 구미시 구미중앙로9길 7",
		"street_score": "33",
		"main_product": "족발 순대 국수",
		"position": {
			"latitude": "36.1303161",
			"longitude": "128.3296488"
		}
	},
	{
		"market_name": "해평공설시장",
		"address_j": "경상북도 구미시 해평면 낙성리 138번지",
		"address_r": "경상북도 구미시 해평면 해평시장3길",
		"street_score": "20",
		"position": {
			"latitude": null,
			"longitude": null
		}
	},
	{
		"market_name": "현대유통쇼핑센타",
		"address_j": "경상북도 구미시 원평동 119-2",
		"address_r": "경상북도 구미시 구미중앙로 61-6",
		"street_score": "0",
		"main_product": "숙녀복 한복 의류",
		"position": {
			"latitude": "36.1300242",
			"longitude": "128.3300421"
		}
	},
	{
		"market_name": "형곡시장프라자",
		"address_j": "경상북도 구미시 형곡동 147-1",
		"address_r": "경상북도 구미시 형곡서로 121",
		"street_score": "0",
		"position": {
			"latitude": "36.1129487",
			"longitude": "128.3342750"
		}
	},
	{
		"market_name": "형곡중앙시장",
		"address_j": "경상북도 구미시 형곡동 321",
		"address_r": "경상북도 구미시 형곡로 186번지",
		"street_score": "1",
		"main_product": "순대",
		"position": {
			"latitude": "36.1063179",
			"longitude": "128.3365166"
		}
	},
	{
		"market_name": "군위전통시장",
		"address_j": "경상북도 군위군 군위읍 서부리 18-1",
		"address_r": "경상북도 군위군 군위읍 중앙6길 4-1",
		"street_score": "25",
		"position": {
			"latitude": "36.2397567",
			"longitude": "128.5679198"
		}
	},
	{
		"market_name": "의흥시장",
		"address_j": "경상북도 군위군 의흥면 읍내리 594-1",
		"address_r": "경상북도 군위군 의흥면 읍내5길 7",
		"street_score": "20",
		"position": {
			"latitude": "36.1742531",
			"longitude": "128.7163053"
		}
	},
	{
		"market_name": "평화시장",
		"address_j": "경상북도 김천시 평화동 259-1",
		"address_r": "경상북도 김천시 김천로100",
		"street_score": "99",
		"main_product": "건어물",
		"position": {
			"latitude": "36.1236562",
			"longitude": "128.1131360"
		}
	},
	{
		"market_name": "황금시장",
		"address_j": "경상북도 김천시 황금동 31-1",
		"address_r": "경상북도 김천시 황금시장4길20",
		"street_score": "59",
		"main_product": "순대 족발",
		"position": {
			"latitude": "36.1166599",
			"longitude": "128.1252833"
		}
	},
	{
		"market_name": "(유)중앙시장",
		"address_j": "경상북도 문경시 점촌동 197-14",
		"address_r": "경상북도 문경시 중앙로 87",
		"street_score": "0",
		"position": {
			"latitude": "36.5935364",
			"longitude": "128.1973424"
		}
	},
	{
		"market_name": "가은아자개시장",
		"address_j": "경상북도 문경시 가은읍 왕능리 275-26",
		"address_r": "경상북도 문경시 가은읍 가은5길 7",
		"street_score": "59",
		"position": {
			"latitude": "36.6466093",
			"longitude": "128.0609889"
		}
	},
	{
		"market_name": "문경시장",
		"address_j": "경상북도 문경시 문경읍 하리 88-2",
		"address_r": "경상북도 문경시 문경읍 문희로 41-15",
		"street_score": "50",
		"position": {
			"latitude": "36.7355833",
			"longitude": "128.1074789"
		}
	},
	{
		"market_name": "신흥시장",
		"address_j": "경상북도 문경시 흥덕동 794-1",
		"address_r": "경상북도 문경시 신흥시장길 19",
		"street_score": "346",
		"main_product": "참기름  들기름",
		"position": {
			"latitude": "36.6012630",
			"longitude": "128.2040680"
		}
	},
	{
		"market_name": "중앙시장",
		"address_j": "경상북도 문경시 흥덕동 794-1",
		"address_r": "경상북도 문경시 중앙시장길32-10",
		"street_score": "23",
		"position": {
			"latitude": "36.5944004",
			"longitude": "128.1982777"
		}
	},
	{
		"market_name": "봉화상설시장",
		"address_j": "경상북도 봉화군 봉화읍 내성리 394-1",
		"address_r": "경상북도 봉화군 봉화읍 신시장1길 4",
		"street_score": "79",
		"position": {
			"latitude": "36.8901443",
			"longitude": "128.7354761"
		}
	},
	{
		"market_name": "봉화춘양시장(춘양시장)",
		"address_j": "경상북도 봉화군 춘양면 의양리 357-29",
		"address_r": "경상북도 봉화군 춘양면 의양로 60",
		"street_score": "53",
		"main_product": "송이",
		"position": {
			"latitude": "36.9363829",
			"longitude": "128.9130046"
		}
	},
	{
		"market_name": "상주중앙시장",
		"address_j": "경상북도 상주시 남성동 85-10",
		"address_r": "경상북도 상주시 남성로35",
		"street_score": "5",
		"position": {
			"latitude": "36.4131941",
			"longitude": "128.1608307"
		}
	},
	{
		"market_name": "은척시장",
		"address_j": "경상북도 상주시 은척면 봉중리383-2",
		"address_r": "경상북도 상주시 은척면 봉중1길 16-1",
		"street_score": "10",
		"position": {
			"latitude": "36.5326678",
			"longitude": "128.0729552"
		}
	},
	{
		"market_name": "풍물시장",
		"address_j": "경상북도 상주시 남성동 113-28",
		"address_r": "경상북도 상주시 풍물시장길16",
		"street_score": "20",
		"position": {
			"latitude": "36.4128500",
			"longitude": "128.1606298"
		}
	},
	{
		"market_name": "함창시장",
		"address_j": "경상북도 상주시 함창읍 구향리",
		"address_r": "경상북도 상주시 함창읍 함창시장길4514",
		"street_score": "49",
		"position": {
			"latitude": null,
			"longitude": null
		}
	},
	{
		"market_name": "화령시장",
		"address_j": "경상북도 상주시 화서면 신봉3리",
		"address_r": "경상북도 상주시 화서면 화령남6길 7",
		"street_score": "12",
		"position": {
			"latitude": "36.4447909",
			"longitude": "127.9506954"
		}
	},
	{
		"market_name": "성주시장",
		"address_j": "경상북도 성주군 성주읍 경산리 718-63",
		"address_r": "경상북도 성주군 성주읍 시장길43",
		"street_score": "103",
		"main_product": "참외",
		"position": {
			"latitude": "35.9144661",
			"longitude": "128.2851064"
		}
	},
	{
		"market_name": "구담공설시장",
		"address_j": "경상북도 안동시 풍천면 구담리 494-1",
		"address_r": "경상북도 안동시 풍천면 섬마길 7-9",
		"street_score": "20",
		"position": {
			"latitude": "36.5417158",
			"longitude": "128.4646131"
		}
	},
	{
		"market_name": "안동구시장",
		"address_j": "경상북도 안동시 서부동 181-1",
		"address_r": "경상북도 안동시 번영1길 55",
		"street_score": "51",
		"main_product": "찜닭 한우 문어 간고등어 폐백음식 보리밥",
		"position": {
			"latitude": "36.5658327",
			"longitude": "128.7278624"
		}
	},
	{
		"market_name": "안동서부시장",
		"address_j": "경상북도 안동시 태화동 60-12",
		"address_r": "경상북도 안동시 대안로 22번지",
		"street_score": "69",
		"position": {
			"latitude": "36.5652710",
			"longitude": "128.7149736"
		}
	},
	{
		"market_name": "온혜공설시장",
		"address_j": "경상북도 안동시 도산면 온혜리 339-1",
		"address_r": "경상북도 안동시 도산면 퇴계로2608",
		"street_score": "10",
		"position": {
			"latitude": "36.7469338",
			"longitude": "128.8329876"
		}
	},
	{
		"market_name": "용상공설시장",
		"address_j": "경상북도 안동시 용상동 1242",
		"address_r": "경상북도 안동시 경동로 862",
		"street_score": "0",
		"position": {
			"latitude": "36.5594607",
			"longitude": "128.7501878"
		}
	},
	{
		"market_name": "중앙신시장",
		"address_j": "경상북도 안동시 옥야동 285-1",
		"address_r": "경상북도 안동시 대안로98-15",
		"street_score": "32",
		"main_product": "문어 간고등어.건어물종류",
		"position": {
			"latitude": "36.5651154",
			"longitude": "128.7241618"
		}
	},
	{
		"market_name": "풍산공설시장",
		"address_j": "경상북도 안동시 풍산읍 하리리 234-6",
		"address_r": "경상북도 안동시 풍산읍 하리들길 7-1",
		"street_score": "54",
		"position": {
			"latitude": "36.5772162",
			"longitude": "128.5765744"
		}
	},
	{
		"market_name": "옹천사설시장",
		"address_j": "경상북도 안동시 북후면 산북로 956",
		"address_r": "경상북도 안동시 옹천시장길 1596",
		"street_score": "0",
		"position": {
			"latitude": null,
			"longitude": null
		}
	},
	{
		"market_name": "천지공설시장",
		"address_j": "경상북도 안동시 길안면 천지리 746-13",
		"address_r": "경상북도 안동시 길안면 천지길 43",
		"street_score": "0",
		"position": {
			"latitude": "36.4582231",
			"longitude": "128.8922695"
		}
	},
	{
		"market_name": "북문시장",
		"address_j": "경상북도 안동시 율세동 410-5",
		"address_r": "경상북도 안동시 북문옥정길 25",
		"street_score": "0",
		"position": {
			"latitude": "36.5685239",
			"longitude": "128.7326143"
		}
	},
	{
		"market_name": "강구시장",
		"address_j": "경상북도 영덕군 강구면 오포리 535",
		"address_r": "경상북도 영덕군 강구면 강구시장1길",
		"street_score": "148",
		"main_product": "수산물",
		"position": {
			"latitude": null,
			"longitude": null
		}
	},
	{
		"market_name": "남정시장",
		"address_j": "경상북도 영덕군 남정면 장사리365",
		"address_r": "경상북도 영덕군 남정면 진불1길 31-3",
		"street_score": "49",
		"position": {
			"latitude": "36.2855560",
			"longitude": "129.3728700"
		}
	},
	{
		"market_name": "영덕시장",
		"address_j": "경상북도 영덕군 영덕읍 남석리 26-50",
		"address_r": "경상북도 영덕군 영덕읍 남석길 23-48",
		"street_score": "40",
		"main_product": "대게 제수상품 고기 과일",
		"position": {
			"latitude": "36.4066956",
			"longitude": "129.3697122"
		}
	},
	{
		"market_name": "영해만세시장",
		"address_j": "경상북도 영덕군 영해면 성내리 468-1",
		"address_r": "경상북도 영덕군 영해면 예주시장5길 21",
		"street_score": "376",
		"position": {
			"latitude": "36.5410083",
			"longitude": "129.4074250"
		}
	},
	{
		"market_name": "영양시장",
		"address_j": "경상북도 영양군 영양로 영양읍 서부리 288-2",
		"address_r": "경상북도 영양군 영양로 영양읍 시장5길 4",
		"street_score": "30",
		"main_product": "사과  고추",
		"position": {
			"latitude": null,
			"longitude": null
		}
	},
	{
		"market_name": "선비골전통시장",
		"address_j": "경상북도 영주시 영주동 373-5",
		"address_r": "경상북도 영주시 중앙로 83번길40",
		"street_score": "9",
		"position": {
			"latitude": "36.8242358",
			"longitude": "128.6231987"
		}
	},
	{
		"market_name": "신영주번개시장",
		"address_j": "경상북도 영주시 휴천동 330",
		"address_r": "경상북도 영주시 선비로79번길",
		"street_score": "14",
		"main_product": "문어.새우",
		"position": {
			"latitude": null,
			"longitude": null
		}
	},
	{
		"market_name": "영주골목시장",
		"address_j": "경상북도 영주시 영주동 315-6",
		"address_r": "경상북도 영주시 구성로 360번길 15-1",
		"street_score": "14",
		"position": {
			"latitude": "36.8245889",
			"longitude": "128.6228585"
		}
	},
	{
		"market_name": "영주공설시장",
		"address_j": "경상북도 영주시 하망동 362-4",
		"address_r": "경상북도 영주시 구성로 330번길 30",
		"street_score": "48",
		"position": {
			"latitude": "36.8225558",
			"longitude": "128.6263207"
		}
	},
	{
		"market_name": "영주문화시장",
		"address_j": "경상북도 영주시 영주동 376-1",
		"address_r": "경상북도 영주시 중앙로 83번길 32",
		"street_score": "0",
		"position": {
			"latitude": "36.8239126",
			"longitude": "128.6235620"
		}
	},
	{
		"market_name": "영주소백쇼핑몰",
		"address_j": "경상북도 영주시 하망동 364-30",
		"address_r": "경상북도 영주시 중앙로 80번길 33-12",
		"street_score": "11",
		"main_product": "한복",
		"position": {
			"latitude": "36.8234896",
			"longitude": "128.6261702"
		}
	},
	{
		"market_name": "영주종합시장",
		"address_j": "경상북도 영주시 휴천동 305",
		"address_r": "경상북도 영주시 선비로79번길 40-12",
		"street_score": "9",
		"position": {
			"latitude": "36.8136039",
			"longitude": "128.6221794"
		}
	},
	{
		"market_name": "영주중앙시장",
		"address_j": "경상북도 영주시 영주동 547",
		"address_r": "경상북도 영주시 영주로 192번길 10-1",
		"street_score": "0",
		"position": {
			"latitude": "36.8257389",
			"longitude": "128.6209769"
		}
	},
	{
		"market_name": "풍기인삼시장",
		"address_j": "경상북도 영주시 서부리 145-3",
		"address_r": "경상북도 영주시 풍기읍인삼로8",
		"street_score": "0",
		"main_product": "인삼",
		"position": {
			"latitude": "36.8730273",
			"longitude": "128.5236172"
		}
	},
	{
		"market_name": "풍기중앙시장",
		"address_j": "경상북도 영주시 풍기읍 성내리 1-4",
		"address_r": "경상북도 영주시 풍기읍 동성로 73",
		"street_score": "9",
		"position": {
			"latitude": "36.8706025",
			"longitude": "128.5281993"
		}
	},
	{
		"market_name": "풍기토종인삼시장",
		"address_j": "경상북도 영주시 풍기읍 성내리 148",
		"address_r": "경상북도 영주시 풍기읍 인삼로 40",
		"street_score": "0",
		"main_product": "인삼",
		"position": {
			"latitude": "36.8704378",
			"longitude": "128.5223254"
		}
	},
	{
		"market_name": "후생시장",
		"address_j": "경상북도 영주시 영주동 334-9",
		"address_r": "경상북도 영주시 번영로 173번길30",
		"street_score": "0",
		"position": {
			"latitude": "36.8269667",
			"longitude": "128.6230540"
		}
	},
	{
		"market_name": "금호공설시장",
		"address_j": "경상북도 영천시 금호읍 교대리167-35",
		"address_r": "경상북도 영천시 금호읍 금호로 101",
		"street_score": "30",
		"position": {
			"latitude": "35.9316688",
			"longitude": "128.8733581"
		}
	},
	{
		"market_name": "신녕공설시장",
		"address_j": "경상북도 영천시 신녕면 화성리 866-1",
		"address_r": "경상북도 영천시 신녕면 본관시장길3",
		"street_score": "5",
		"position": {
			"latitude": "36.0420961",
			"longitude": "128.7875477"
		}
	},
	{
		"market_name": "영천공설시장",
		"address_j": "경상북도 영천시  완산동 982-3",
		"address_r": "경상북도 영천시 시장4길 52 ",
		"street_score": "99",
		"main_product": "곰탕  한우",
		"position": {
			"latitude": "35.9643609",
			"longitude": "128.9386479"
		}
	},
	{
		"market_name": "예천맛고을시장",
		"address_j": "경상북도 예천군 노하리 74-16",
		"address_r": "경상북도 예천군 맛고을길 57",
		"street_score": "0",
		"position": {
			"latitude": "36.6568954",
			"longitude": "128.4548791"
		}
	},
	{
		"market_name": "예천상설시장",
		"address_j": "경상북도 예천군 예천읍 동본리 553",
		"address_r": "경상북도 예천군 예천읍 상설시장2길 3-1",
		"street_score": "15",
		"position": {
			"latitude": "36.6559886",
			"longitude": "128.4560796"
		}
	},
	{
		"market_name": "예천중앙시장",
		"address_j": "경상북도 예천군 예천읍 동본리 497-1",
		"address_r": "경상북도 예천군 예천읍 시장로127",
		"street_score": "20",
		"position": {
			"latitude": "36.6574365",
			"longitude": "128.4578281"
		}
	},
	{
		"market_name": "용궁시장",
		"address_j": "경상북도 예천군 용궁면 읍부리 329-1",
		"address_r": "경상북도 예천군 용궁면 용궁시장길 9",
		"street_score": "15",
		"main_product": "순대",
		"position": {
			"latitude": "36.6070180",
			"longitude": "128.2753724"
		}
	},
	{
		"market_name": "풍양시장",
		"address_j": "경상북도 예천군 풍양면 낙상리 157-7",
		"address_r": "경상북도 예천군 풍양면 낙상2길 37-13",
		"street_score": "10",
		"position": {
			"latitude": "36.5092728",
			"longitude": "128.2998055"
		}
	},
	{
		"market_name": "울진시장",
		"address_j": "경상북도 울진군 울진읍 읍내리 63",
		"address_r": "경상북도 울진군 울진읍 읍내2길 13-6",
		"street_score": "99",
		"position": {
			"latitude": "36.9916147",
			"longitude": "129.4021045"
		}
	},
	{
		"market_name": "죽변시장",
		"address_j": "경상북도 울진군 죽변면 죽변리 36-8",
		"address_r": "경상북도 울진군 죽변면 죽변중앙로 168-14",
		"street_score": "49",
		"position": {
			"latitude": "37.0589922",
			"longitude": "129.4222548"
		}
	},
	{
		"market_name": "척산시장",
		"address_j": "경상북도 울진군 기성면 척산리 264-1",
		"address_r": "경상북도 울진군 기성면 척산길 46",
		"street_score": "15",
		"position": {
			"latitude": "36.7969414",
			"longitude": "129.4520647"
		}
	},
	{
		"market_name": "평해시장",
		"address_j": "경상북도 울진군 평해읍 평해리 879-3",
		"address_r": "경상북도 울진군 평해읍 평해6길12",
		"street_score": "79",
		"position": {
			"latitude": "36.7269290",
			"longitude": "129.4424689"
		}
	},
	{
		"market_name": "후포시장",
		"address_j": "경상북도 울진군 후포면 삼율리 126",
		"address_r": "경상북도 울진군 후포면 울진대게로21",
		"street_score": "158",
		"position": {
			"latitude": "36.6778759",
			"longitude": "129.4442274"
		}
	},
	{
		"market_name": "흥부시장",
		"address_j": "경상북도 울진군 북면 부구리 135",
		"address_r": "경상북도 울진군 북면 장터길 104",
		"street_score": "40",
		"position": {
			"latitude": "37.1035911",
			"longitude": "129.3754176"
		}
	},
	{
		"market_name": "매화시장",
		"address_j": "경상북도 울진군 원남면 매화리 1147",
		"address_r": "경상북도 울진군 원남면 매화2길 33",
		"street_score": "0",
		"position": {
			"latitude": "36.9103250",
			"longitude": "129.3806007"
		}
	},
	{
		"market_name": "금성시장",
		"address_j": "경상북도 의성군 금성면 대리리 66-7",
		"address_r": "경상북도 의성군 금성면 탑리길56-1",
		"street_score": "40",
		"position": {
			"latitude": "36.2561774",
			"longitude": "128.6814158"
		}
	},
	{
		"market_name": "다인정기시장",
		"address_j": "경상북도 의성군 다인면 서릉리 167-1",
		"address_r": "경상북도 의성군 다인면 다인장길21-4",
		"street_score": "5",
		"position": {
			"latitude": "36.4503550",
			"longitude": "128.3557427"
		}
	},